filename,provider,id,timestamp,longitude,latitude,name,charge,electric,manual,range,size
20200125_221001.geojson,publibike,pb_60,2020-01-25 22:09:45,8.540062,47.374392,Demo Station Werdmühleplatz,,7.0,9.0,,
20200125_221001.geojson,publibike,pb_61,2020-01-25 22:09:45,8.5452956,47.4099615,Marktplatz,,3.0,4.0,,
20200125_221001.geojson,publibike,pb_80,2020-01-25 22:09:45,8.5156327,47.3795837,Bullingerplatz,,8.0,9.0,,
20200125_221001.geojson,publibike,pb_81,2020-01-25 22:09:45,8.5104051,47.3899342,Herdern,,1.0,4.0,,
20200125_221001.geojson,publibike,pb_82,2020-01-25 22:09:45,8.535718,47.359675,Hafen Enge,,0.0,1.0,,
20200125_221001.geojson,publibike,pb_83,2020-01-25 22:09:45,8.520370505,47.358663827,Comerge,,3.0,1.0,,
20200125_221001.geojson,publibike,pb_84,2020-01-25 22:09:45,8.5412505,47.3789825,Landesmuseum,,13.0,33.0,,
20200125_221001.geojson,publibike,pb_85,2020-01-25 22:09:45,8.5235479,47.3716661,Bahnhof Wiedikon,,2.0,6.0,,
20200125_221001.geojson,publibike,pb_86,2020-01-25 22:09:45,8.506822854,47.40781197,ETH Hönggerberg,,0.0,0.0,,
20200125_221001.geojson,publibike,pb_87,2020-01-25 22:09:45,8.536101,47.371083,Pelikanplatz,,0.0,5.0,,
20200125_221001.geojson,publibike,pb_88,2020-01-25 22:09:45,8.5257822,47.3651936,Hürlimannplatz,,4.0,2.0,,
20200125_221001.geojson,publibike,pb_89,2020-01-25 22:09:45,8.5313344,47.3713591,Stauffacherbrücke,,3.0,4.0,,
20200125_221001.geojson,publibike,pb_90,2020-01-25 22:09:45,8.5056978,47.3917964,Sportweg,,3.0,2.0,,
20200125_221001.geojson,publibike,pb_91,2020-01-25 22:09:45,8.5181701,47.3917837,Puls 5,,0.0,6.0,,
20200125_221001.geojson,publibike,pb_92,2020-01-25 22:09:45,8.5286468,47.3820827,Röntgenstrasse,,6.0,1.0,,
20200125_221001.geojson,publibike,pb_93,2020-01-25 22:09:45,8.531935,47.384918,Limmatplatz,,0.0,4.0,,
20200125_221001.geojson,publibike,pb_94,2020-01-25 22:09:45,8.5354006,47.3758639,Gessnerallee,,9.0,7.0,,
20200125_221001.geojson,publibike,pb_95,2020-01-25 22:09:45,8.523818,47.377148,Bäckeranlage,,9.0,6.0,,
20200125_221001.geojson,publibike,pb_96,2020-01-25 22:09:45,8.531836,47.378548,Gustav-Gull-Platz,,5.0,4.0,,
20200125_221001.geojson,publibike,pb_97,2020-01-25 22:09:45,8.5104883,47.3771535,Zurlindenstrasse,,8.0,4.0,,
20200125_221001.geojson,publibike,pb_98,2020-01-25 22:09:45,8.5333139,47.3731102,Sihlstrasse,,2.0,1.0,,
20200125_221001.geojson,publibike,pb_99,2020-01-25 22:09:45,8.520532,47.374951,Kalkbreite,,0.0,14.0,,
20200125_221001.geojson,publibike,pb_100,2020-01-25 22:09:45,8.539046,47.368064,Zürcher Kantonalbank,,4.0,1.0,,
20200125_221001.geojson,publibike,pb_101,2020-01-25 22:09:45,8.5348427,47.3625938,Rentenanstalt,,4.0,0.0,,
20200125_221001.geojson,publibike,pb_102,2020-01-25 22:09:45,8.5166922,47.3897772,Turbinenplatz,,1.0,2.0,,
20200125_221001.geojson,publibike,pb_104,2020-01-25 22:09:45,8.539312,47.3739964,Rennweg,,2.0,10.0,,
20200125_221001.geojson,publibike,pb_105,2020-01-25 22:09:45,8.5360685,47.3775022,Sihlpost,,20.0,32.0,,
20200125_221001.geojson,publibike,pb_106,2020-01-25 22:09:45,8.53545,47.382798,Museum für Gestaltung,,2.0,7.0,,
20200125_221001.geojson,publibike,pb_107,2020-01-25 22:09:45,8.5306155,47.3647902,Bederbrücke,,11.0,7.0,,
20200125_221001.geojson,publibike,pb_108,2020-01-25 22:09:45,8.518982,47.386741,Bahnhof Hardbrücke,,4.0,8.0,,
20200125_221001.geojson,publibike,pb_109,2020-01-25 22:09:45,8.53001018,47.37247535,Tamedia,,1.0,1.0,,
20200125_221001.geojson,publibike,pb_110,2020-01-25 22:09:45,8.4860017,47.396401,Grünau,,9.0,7.0,,
20200125_221001.geojson,publibike,pb_111,2020-01-25 22:09:45,8.548519,47.376756,ETH Zentrum,,0.0,0.0,,
20200125_221001.geojson,publibike,pb_112,2020-01-25 22:09:45,8.520449,47.388151,Steinfelsareal,,2.0,4.0,,
20200125_221001.geojson,publibike,pb_124,2020-01-25 22:09:45,8.520482,47.37209,Weststrasse,,0.0,3.0,,
20200125_221001.geojson,publibike,pb_125,2020-01-25 22:09:45,8.496727,47.378521,Utogrund,,6.0,0.0,,
20200125_221001.geojson,publibike,pb_126,2020-01-25 22:09:45,8.510418,47.381356,Hardau,,2.0,2.0,,
20200125_221001.geojson,publibike,pb_127,2020-01-25 22:09:45,8.525525,47.361567,Klopstockwiese,,3.0,0.0,,
20200125_221001.geojson,publibike,pb_128,2020-01-25 22:09:45,8.518143,47.363148,Binz,,9.0,4.0,,
20200125_221001.geojson,publibike,pb_129,2020-01-25 22:09:45,8.542726,47.379952,Stampfenbachplatz,,0.0,0.0,,
20200125_221001.geojson,publibike,pb_130,2020-01-25 22:09:45,8.488108,47.391366,Bahnhof Altstetten,,5.0,9.0,,
20200125_221001.geojson,publibike,pb_131,2020-01-25 22:09:45,8.554114,47.365119,Kreuzplatz,,5.0,1.0,,
20200125_221001.geojson,publibike,pb_132,2020-01-25 22:09:45,8.549852,47.35594,Blatterwiese,,1.0,4.0,,
20200125_221001.geojson,publibike,pb_133,2020-01-25 22:09:45,8.554501,47.36162,Villa Bleuler,,6.0,5.0,,
20200125_221001.geojson,publibike,pb_134,2020-01-25 22:09:45,8.557088,47.358557,Mühlebachstrasse,,5.0,3.0,,
20200125_221001.geojson,publibike,pb_135,2020-01-25 22:09:45,8.547639,47.361266,Seebad Utoquai,,2.0,10.0,,
20200125_221001.geojson,publibike,pb_137,2020-01-25 22:09:45,8.548045,47.370869,Kunsthaus,,12.0,0.0,,
20200125_221001.geojson,publibike,pb_138,2020-01-25 22:09:45,8.543447,47.375933,Central,,2.0,16.0,,
20200125_221001.geojson,publibike,pb_139,2020-01-25 22:09:45,8.549356,47.408827,ewz Tramstrasse,,1.0,4.0,,
20200125_221001.geojson,publibike,pb_140,2020-01-25 22:09:45,8.533736,47.366904,Bleicherweg,,3.0,2.0,,
20200125_221001.geojson,publibike,pb_141,2020-01-25 22:09:45,8.544935,47.366752,Bellevue,,35.0,25.0,,
20200125_221001.geojson,publibike,pb_142,2020-01-25 22:09:45,8.5285533,47.3742296,Stauffacher,,4.0,2.0,,
20200125_221001.geojson,publibike,pb_143,2020-01-25 22:09:45,8.523722,47.3899,Escher-Wyss-Platz,,4.0,3.0,,
20200125_221001.geojson,publibike,pb_149,2020-01-25 22:09:45,8.491061,47.392336,Vulkanplatz,,1.0,13.0,,
20200125_221001.geojson,publibike,pb_150,2020-01-25 22:09:45,8.52306,47.359872,Utoplatz,,9.0,7.0,,
20200125_221001.geojson,publibike,pb_151,2020-01-25 22:09:45,8.486284,47.387685,Lindenplatz,,12.0,11.0,,
20200125_221001.geojson,publibike,pb_152,2020-01-25 22:09:45,8.49163,47.389823,Luggweg,,2.0,8.0,,
20200125_221001.geojson,publibike,pb_153,2020-01-25 22:09:45,8.52174,47.365272,Manesseplatz,,4.0,0.0,,
20200125_221001.geojson,publibike,pb_154,2020-01-25 22:09:45,8.52714,47.372329,Werd,,5.0,0.0,,
20200125_221001.geojson,publibike,pb_155,2020-01-25 22:09:45,8.543042,47.374711,Rudolf-Brun-Brücke,,0.0,0.0,,
20200125_221001.geojson,publibike,pb_156,2020-01-25 22:09:45,8.490837,47.386596,Luggwegstrasse VBZ,,1.0,2.0,,
20200125_221001.geojson,publibike,pb_157,2020-01-25 22:09:45,8.535119,47.355189,Strandbad Mythenquai,,8.0,5.0,,
20200125_221001.geojson,publibike,pb_158,2020-01-25 22:09:45,8.545505,47.373675,Predigerplatz,,5.0,7.0,,
20200125_221001.geojson,publibike,pb_159,2020-01-25 22:09:45,8.515558,47.371868,Zwinglihaus,,0.0,1.0,,
20200125_221001.geojson,publibike,pb_160,2020-01-25 22:09:45,8.524629,47.386072,Josefwiese,,2.0,3.0,,
20200125_221001.geojson,publibike,pb_164,2020-01-25 22:09:45,8.527138,47.387531,Markthalle,,5.0,3.0,,
20200125_221001.geojson,publibike,pb_263,2020-01-25 22:09:45,8.552717,47.359978,Feldeggstrasse,,8.0,16.0,,
20200125_221001.geojson,publibike,pb_264,2020-01-25 22:09:45,8.553189,47.353198,Lake Side,,0.0,0.0,,
20200125_221001.geojson,publibike,pb_265,2020-01-25 22:09:45,8.543437,47.369256,Helmhaus,,0.0,0.0,,
20200125_221001.geojson,publibike,pb_266,2020-01-25 22:09:45,8.516676,47.375819,Lochergut,,10.0,8.0,,
20200125_221001.geojson,publibike,pb_273,2020-01-25 22:09:45,8.514605,47.389862,Westpark,,2.0,3.0,,
20200125_221001.geojson,publibike,pb_274,2020-01-25 22:09:45,8.541239126,47.375991201,Beatenplatz,,7.0,10.0,,
20200125_221001.geojson,publibike,pb_275,2020-01-25 22:09:45,8.5417135,47.3942197,Pauluskirche,,0.0,0.0,,
20200125_221001.geojson,publibike,pb_276,2020-01-25 22:09:45,8.5528182,47.414558,Airgate,,0.0,11.0,,
20200125_221001.geojson,publibike,pb_277,2020-01-25 22:09:45,8.537816,47.413514,Lamprechtweg,,4.0,4.0,,
20200125_221001.geojson,publibike,pb_278,2020-01-25 22:09:45,8.545602,47.417701,Emil-Oberhänsli,,8.0,9.0,,
20200125_221001.geojson,publibike,pb_279,2020-01-25 22:09:45,8.533647,47.39808,Bucheggplatz,,2.0,0.0,,
20200125_221001.geojson,publibike,pb_280,2020-01-25 22:09:45,8.523549,47.392347,Wipkingerplatz,,3.0,5.0,,
20200125_221001.geojson,publibike,pb_285,2020-01-25 22:09:45,8.548562,47.36691,Bahnhof Stadelhofen,,14.0,2.0,,
20200125_221001.geojson,publibike,pb_286,2020-01-25 22:09:45,8.493822,47.3985553,Tüffenwies,,0.0,3.0,,
20200125_221001.geojson,publibike,pb_356,2020-01-25 22:09:45,8.552432,47.3801757,Siriuswiese,,6.0,0.0,,
20200125_221001.geojson,publibike,pb_357,2020-01-25 22:09:45,8.527298,47.370141,Hallwylstrasse,,2.0,3.0,,
20200125_221001.geojson,publibike,pb_358,2020-01-25 22:09:45,8.5414185,47.3972455,Milchbuck,,3.0,1.0,,
20200125_221001.geojson,publibike,pb_359,2020-01-25 22:09:45,8.512381,47.393409,Fischerweg,,2.0,1.0,,
20200125_221001.geojson,publibike,pb_360,2020-01-25 22:09:45,8.5421457,47.3876979,Kirche Unterstrass,,0.0,0.0,,
20200125_221001.geojson,publibike,pb_361,2020-01-25 22:09:45,8.522117,47.394554,Dorfstrasse,,0.0,0.0,,
20200125_221001.geojson,publibike,pb_362,2020-01-25 22:09:45,8.530437,47.37271,Stauffachertor,,2.0,3.0,,
20200125_221001.geojson,publibike,pb_363,2020-01-25 22:09:45,8.541712,47.416155,Wahlenpark,,1.0,2.0,,
20200125_221001.geojson,publibike,pb_364,2020-01-25 22:09:45,8.5595335,47.3708387,Kinderspital,,9.0,1.0,,
20200125_221001.geojson,publibike,pb_365,2020-01-25 22:09:45,8.536433,47.388689,Kornhausstrasse,,1.0,0.0,,
20200125_221001.geojson,publibike,pb_366,2020-01-25 22:09:45,8.55033,47.407098,Dorflinde,,3.0,1.0,,
20200125_221001.geojson,publibike,pb_367,2020-01-25 22:09:45,8.560476,47.368199,Römerhof,,13.0,0.0,,
20200125_221001.geojson,publibike,pb_368,2020-01-25 22:09:45,8.5609218,47.3619068,Hegibachplatz,,7.0,4.0,,
20200125_221001.geojson,publibike,pb_370,2020-01-25 22:09:45,8.5721264,47.4039985,Schwamendingerplatz,,5.0,5.0,,
20200125_221001.geojson,publibike,pb_384,2020-01-25 22:09:45,8.520168,47.378556,Hermann-Greulich-Weg,,6.0,9.0,,
20200125_221001.geojson,publibike,pb_386,2020-01-25 22:09:45,8.547912,47.384923,Rigiplatz,,0.0,2.0,,
20200125_221001.geojson,publibike,pb_387,2020-01-25 22:09:45,8.543768,47.411057,Bahnhof Oerlikon Süd,,2.0,2.0,,
20200125_221001.geojson,publibike,pb_388,2020-01-25 22:09:45,8.544185,47.412732,Max-Frisch-Platz,,3.0,7.0,,
20200125_221001.geojson,publibike,pb_389,2020-01-25 22:09:45,8.558096,47.413032,Hunziker-Areal,,0.0,10.0,,
20200125_221001.geojson,publibike,pb_390,2020-01-25 22:09:45,8.533265,47.412873,Luis-Häfliger-Park,,1.0,4.0,,
20200125_221001.geojson,publibike,pb_391,2020-01-25 22:09:45,8.499265,47.401852,Meierhofplatz,,1.0,0.0,,
20200125_221001.geojson,publibike,pb_392,2020-01-25 22:09:45,8.528356,47.393255,Röschibachplatz,,8.0,0.0,,
20200125_221001.geojson,publibike,pb_393,2020-01-25 22:09:45,8.538067,47.415721,Oerliker Park,,6.0,2.0,,
20200125_221001.geojson,publibike,pb_395,2020-01-25 22:09:45,8.5420304,47.3669233,Bürkliplatz,,2.0,11.0,,
20200125_221001.geojson,publibike,pb_396,2020-01-25 22:09:45,8.535767,47.409881,Holunderhof,,1.0,0.0,,
20200125_221001.geojson,publibike,pb_431,2020-01-25 22:09:45,8.5116245,47.3616199,Binz Center,,2.0,0.0,,
20200125_221001.geojson,publibike,pb_430,2020-01-25 22:09:45,8.547195,47.382089,Stapferstube,,2.0,1.0,,
20200125_221001.geojson,publibike,pb_426,2020-01-25 22:09:45,8.5787183,47.4039845,Kronwiesen,,1.0,3.0,,
20200125_221001.geojson,publibike,pb_425,2020-01-25 22:09:45,8.508131,47.420757,Bahnhof Affoltern,,8.0,3.0,,
20200125_221001.geojson,publibike,pb_424,2020-01-25 22:09:45,8.532464,47.406988,Birchdörfli,,0.0,3.0,,
20200125_221001.geojson,publibike,pb_429,2020-01-25 22:09:45,8.5777038,47.4080095,Luegisland,,2.0,4.0,,
20200125_221001.geojson,publibike,pb_428,2020-01-25 22:09:45,8.58841,47.40158,Hirzenbachstrasse,,1.0,2.0,,
20200125_221001.geojson,publibike,pb_445,2020-01-25 22:09:45,8.5563463,47.4095467,Hallenbad Oerlikon,,3.0,9.0,,
20200125_221001.geojson,publibike,pb_454,2020-01-25 22:09:45,8.537971,47.364871,General-Guisan-Quai,,5.0,1.0,,
20200125_221001.geojson,publibike,pb_450,2020-01-25 22:09:45,8.560587,47.350578,Bahnhof Tiefenbrunnen,,6.0,4.0,,
20200125_221001.geojson,publibike,pb_452,2020-01-25 22:09:45,8.5269416,47.3563719,Rieterplatz,,1.0,6.0,,
20200125_221001.geojson,publibike,pb_446,2020-01-25 22:09:45,8.514176,47.3663708,Binzallee,,4.0,4.0,,
20200125_221001.geojson,publibike,pb_447,2020-01-25 22:09:45,8.5070564,47.371455,Gutstrasse,,13.0,7.0,,
20200125_221001.geojson,publibike,pb_453,2020-01-25 22:09:45,8.4941268,47.3836391,Flurpark,,5.0,3.0,,
20200125_221001.geojson,publibike,pb_448,2020-01-25 22:09:45,8.500343,47.380778,Blüemliquartier,,2.0,1.0,,
20200125_221001.geojson,publibike,pb_449,2020-01-25 22:09:45,8.528796,47.383858,Gasometerstrasse,,1.0,7.0,,
20200125_221001.geojson,publibike,pb_455,2020-01-25 22:09:45,8.4981964,47.3859194,Letzipark,,8.0,6.0,,
20200125_221001.geojson,publibike,pb_451,2020-01-25 22:09:45,8.515252,47.381915,Hardplatz,,6.0,1.0,,
20200125_221001.geojson,publibike,pb_427,2020-01-25 22:09:45,8.5064743,47.4188324,Zehntenhausplatz,,4.0,5.0,,
20200125_221001.geojson,publibike,pb_513,2020-01-25 22:09:45,8.537729,47.379719,Sihlquai,,6.0,9.0,,
20200125_221001.geojson,publibike,pb_514,2020-01-25 22:09:45,8.596202,47.397885,Bahnhof Stettbach,,8.0,4.0,,
20200125_221001.geojson,publibike,pb_515,2020-01-25 22:09:45,8.5543974,47.3690153,Hottingerplatz,,4.0,0.0,,
20200125_221001.geojson,publibike,pb_282,2020-01-25 22:09:45,8.534444,47.351525,Theaterspektakel,,0.0,0.0,,
20200125_221001.geojson,publibike,pb_538,2020-01-25 22:09:45,8.516257,47.367656,Kirche Bühl,,10.0,0.0,,
20200125_221001.geojson,publibike,pb_537,2020-01-25 22:09:45,8.555639,47.416873,Leutschenpark,,0.0,4.0,,
20200125_221001.geojson,publibike,pb_540,2020-01-25 22:09:45,8.546464,47.403822,Berninaplatz,,5.0,1.0,,
20200125_221001.geojson,publibike,pb_385,2020-01-25 22:09:45,8.523134,47.369004,Aegerten,,0.0,2.0,,
20200125_221001.geojson,publibike,pb_536,2020-01-25 22:09:45,8.49038,47.381591,Freilager,,5.0,8.0,,
20200125_221001.geojson,publibike,pb_444,2020-01-25 22:09:45,8.496511,47.375247,Sackzelg,,8.0,4.0,,
20200125_221001.geojson,publibike,pb_539,2020-01-25 22:09:45,8.58131,47.402801,Glattwiesen,,4.0,4.0,,
20200125_221001.geojson,publibike,pb_560,2020-01-25 22:09:45,8.52689,47.3767,Helvetiaplatz,,0.0,5.0,,
20200125_221001.geojson,publibike,pb_559,2020-01-25 22:09:45,8.525602,47.374241,Bezirksgebäude,,1.0,4.0,,
20200125_221001.geojson,publibike,pb_564,2020-01-25 22:09:45,8.535082,47.345248,GZ Wollishofen,,7.0,0.0,,
20200125_221001.geojson,publibike,pb_562,2020-01-25 22:09:45,8.514841,47.370238,Goldbrunnenplatz,,4.0,1.0,,
20200125_221001.geojson,publibike,pb_557,2020-01-25 22:09:45,8.514138,47.374206,Idaplatz,,2.0,0.0,,
20200125_221001.geojson,publibike,pb_558,2020-01-25 22:09:45,8.518432,47.369549,Schmiede Wiedikon,,3.0,7.0,,
20200125_221001.geojson,publibike,pb_556,2020-01-25 22:09:45,8.537546,47.391289,Schaffhauserplatz,,6.0,0.0,,
20200125_221001.geojson,publibike,pb_561,2020-01-25 22:09:45,8.541541,47.413733,Center Eleven,,1.0,1.0,,
20200125_221001.geojson,publibike,pb_563,2020-01-25 22:09:45,8.534227,47.360004,Mythenschloss,,3.0,1.0,,
20200125_221001.geojson,publibike,pb_566,2020-01-25 22:09:45,8.50373,47.396172,Am Wasser,,3.0,7.0,,
20200125_221001.geojson,publibike,pb_565,2020-01-25 22:09:45,8.532432,47.381174,Zollstrasse,,4.0,9.0,,
20200125_221001.geojson,publibike,pb_567,2020-01-25 22:09:45,8.497982,47.381447,Dennlerstrasse,,1.0,1.0,,
20200125_221001.geojson,publibike,pb_568,2020-01-25 22:09:45,8.528049,47.347701,Jugendherberge,,7.0,7.0,,
20200125_221001.geojson,publibike,pb_569,2020-01-25 22:09:45,8.539016,47.405751,Freibad Allenmoos,,6.0,3.0,,
20200125_221001.geojson,publibike,pb_572,2020-01-25 22:09:45,8.534974,47.402164,Radiostudio,,4.0,1.0,,
20200125_221001.geojson,publibike,pb_571,2020-01-25 22:09:45,8.547901,47.375556,ETH/Zoologisches Museum,,0.0,0.0,,
20200125_221001.geojson,smide,smide_2901,2020-01-25 22:09:21,8.582185,47.351895,ZH 267278,72.0,,,36.0,20.0
20200125_221001.geojson,smide,smide_2895,2020-01-25 22:09:21,8.561465,47.350206,ZH 267279,35.0,,,17.0,20.0
20200125_221001.geojson,smide,smide_2883,2020-01-25 22:09:21,8.538945,47.375706,ZH 267272,80.0,,,40.0,20.0
20200125_221001.geojson,smide,smide_2880,2020-01-25 22:09:21,8.514361,47.391343,ZH267289,75.0,,,37.0,17.0
20200125_221001.geojson,smide,smide_2874,2020-01-25 22:09:21,8.560405,47.351675,ZH 267288,89.0,,,44.0,17.0
20200125_221001.geojson,smide,smide_2871,2020-01-25 22:09:21,8.494998,47.39846,ZH 267086,83.0,,,41.0,20.0
20200125_221001.geojson,smide,smide_2867,2020-01-25 22:09:21,8.557445,47.419073,ZH 267090,89.0,,,44.0,20.0
20200125_221001.geojson,smide,smide_2861,2020-01-25 22:09:21,8.55698,47.377068,ZH 267096,47.0,,,23.0,17.0
20200125_221001.geojson,smide,smide_2860,2020-01-25 22:09:21,8.48369,47.397155,ZH 267097,75.0,,,37.0,17.0
20200125_221001.geojson,smide,smide_2859,2020-01-25 22:09:21,8.533335,47.347405,ZH 267098,52.0,,,26.0,17.0
20200125_221001.geojson,smide,smide_2856,2020-01-25 22:09:21,8.579773,47.3505,ZH 267101,36.0,,,18.0,17.0
20200125_221001.geojson,smide,smide_2855,2020-01-25 22:09:21,8.552281,47.411183,ZH 267102,59.0,,,29.0,17.0
20200125_221001.geojson,smide,smide_2854,2020-01-25 22:09:21,8.553475,47.397501,ZH 267103,38.0,,,19.0,17.0
20200125_221001.geojson,smide,smide_2833,2020-01-25 22:09:21,8.518675,47.413558,ZH 267182,100.0,,,50.0,20.0
20200125_221001.geojson,smide,smide_2831,2020-01-25 22:09:21,8.570196,47.35233,ZH 267180,94.0,,,47.0,20.0
20200125_221001.geojson,smide,smide_2829,2020-01-25 22:09:21,8.528803,47.377183,ZH 267049,75.0,,,37.0,20.0
20200125_221001.geojson,smide,smide_2804,2020-01-25 22:09:21,8.511846,47.420376,ZH266903,84.0,,,42.0,20.0
20200125_221001.geojson,smide,smide_2798,2020-01-25 22:09:21,8.553105,47.398375,ZH266888,20.0,,,10.0,17.0
20200125_221001.geojson,smide,smide_2792,2020-01-25 22:09:21,8.552998,47.413986,ZH266882,43.0,,,21.0,17.0
20200125_221001.geojson,smide,smide_2790,2020-01-25 22:09:21,8.512866,47.415151,ZH266880,100.0,,,50.0,17.0
20200125_221001.geojson,smide,smide_2781,2020-01-25 22:09:21,8.560373,47.372186,ZH 266871,27.0,,,13.0,17.0
20200125_221001.geojson,smide,smide_2780,2020-01-25 22:09:21,8.514813,47.37313,ST1 X #1,40.0,,,20.0,17.0
20200125_221001.geojson,smide,smide_2775,2020-01-25 22:09:21,8.487291,47.384292,ZH267283,47.0,,,23.0,20.0
20200125_221001.geojson,smide,smide_2773,2020-01-25 22:09:21,8.487259,47.384292,ZH266561,74.0,,,37.0,17.0
20200125_221001.geojson,smide,smide_2763,2020-01-25 22:09:21,8.507007,47.406588,ZH266641,100.0,,,50.0,17.0
20200125_221001.geojson,smide,smide_2761,2020-01-25 22:09:21,8.513828,47.365145,ZH266642,30.0,,,15.0,20.0
20200125_221001.geojson,smide,smide_2758,2020-01-25 22:09:21,8.51558,47.364436,ZH266638 M,90.0,,,45.0,17.0
20200125_221001.geojson,smide,smide_2751,2020-01-25 22:09:21,8.552664,47.388652,BE343857,31.0,,,15.0,17.0
20200125_221001.geojson,smide,smide_2749,2020-01-25 22:09:21,8.558045,47.371464,BE343867,97.0,,,48.0,17.0
20200125_221001.geojson,smide,smide_2746,2020-01-25 22:09:21,8.521924,47.357932,BE335817,95.0,,,47.0,17.0
20200125_221001.geojson,smide,smide_2747,2020-01-25 22:09:21,8.558248,47.404512,BE335820,99.0,,,49.0,17.0
20200125_221001.geojson,smide,smide_2745,2020-01-25 22:09:21,8.517381,47.387516,BE335818,72.0,,,36.0,17.0
20200125_221001.geojson,smide,smide_2742,2020-01-25 22:09:21,8.574743,47.352352,BE343866,83.0,,,41.0,17.0
20200125_221001.geojson,smide,smide_2740,2020-01-25 22:09:21,8.530273,47.35206,BE343875,99.0,,,49.0,17.0
20200125_221001.geojson,smide,smide_2738,2020-01-25 22:09:21,8.557413,47.370385,BE343865,65.0,,,32.0,17.0
20200125_221001.geojson,smide,smide_2737,2020-01-25 22:09:21,8.564229,47.361588,BE336149,44.0,,,22.0,17.0
20200125_221001.geojson,smide,smide_2734,2020-01-25 22:09:21,8.573833,47.383708,BE343876,89.0,,,44.0,17.0
20200125_221001.geojson,smide,smide_2733,2020-01-25 22:09:21,8.541401,47.397232,BE343873,71.0,,,35.0,17.0
20200125_221001.geojson,smide,smide_2732,2020-01-25 22:09:21,8.509307,47.39508,BE343870,85.0,,,42.0,17.0
20200125_221001.geojson,smide,smide_2729,2020-01-25 22:09:21,8.562132,47.410532,BE343878,42.0,,,21.0,17.0
20200125_221001.geojson,smide,smide_2725,2020-01-25 22:09:21,8.490721,47.380738,ZH261545,100.0,,,50.0,0.0
20200125_221001.geojson,smide,smide_2718,2020-01-25 22:09:21,8.536936,47.367071,ZH259019,84.0,,,42.0,20.0
20200125_221001.geojson,smide,smide_2717,2020-01-25 22:09:21,8.503445,47.396768,ZH263287,22.0,,,11.0,17.0
20200125_221001.geojson,smide,smide_2716,2020-01-25 22:09:21,8.524395,47.397871,ZH254606,93.0,,,46.0,17.0
20200125_221001.geojson,smide,smide_2714,2020-01-25 22:09:21,8.544341,47.392856,ZH256461,67.0,,,33.0,17.0
20200125_221001.geojson,smide,smide_2710,2020-01-25 22:09:21,8.553432,47.402184,ZH256460,60.0,,,30.0,17.0
20200125_221001.geojson,smide,smide_2712,2020-01-25 22:09:21,8.543537,47.382968,ZH256462,80.0,,,40.0,17.0
20200125_221001.geojson,smide,smide_2711,2020-01-25 22:09:21,8.555799,47.357008,ZH256463,95.0,,,47.0,17.0
20200125_221001.geojson,smide,smide_2709,2020-01-25 22:09:21,8.574506,47.352345,ZH256466,27.0,,,13.0,20.0
20200125_221001.geojson,smide,smide_2707,2020-01-25 22:09:21,8.565769,47.364144,ZH256467,63.0,,,31.0,20.0
20200125_221001.geojson,smide,smide_2706,2020-01-25 22:09:21,8.513913,47.362148,ZH256322,43.0,,,21.0,20.0
20200125_221001.geojson,smide,smide_2705,2020-01-25 22:09:21,8.554707,47.402976,ZH256471,37.0,,,18.0,20.0
20200125_221001.geojson,smide,smide_2703,2020-01-25 22:09:21,8.512082,47.38024,ZH256473,95.0,,,47.0,20.0
20200125_221001.geojson,smide,smide_2701,2020-01-25 22:09:21,8.545319,47.423624,ZH256468,21.0,,,10.0,20.0
20200125_221001.geojson,smide,smide_2699,2020-01-25 22:09:21,8.530227,47.390356,ZH254611,26.0,,,13.0,20.0
20200125_221001.geojson,smide,smide_2697,2020-01-25 22:09:21,8.518362,47.413564,ZH254629,99.0,,,49.0,20.0
20200125_221001.geojson,smide,smide_2696,2020-01-25 22:09:21,8.538542,47.377568,ZH254616,57.0,,,28.0,20.0
20200125_221001.geojson,smide,smide_2691,2020-01-25 22:09:21,8.559471,47.416738,ZH254622,85.0,,,42.0,20.0
20200125_221001.geojson,smide,smide_2690,2020-01-25 22:09:21,8.493832,47.400248,ZH254625,27.0,,,13.0,20.0
20200125_221001.geojson,smide,smide_2689,2020-01-25 22:09:21,8.498012,47.423964,ZH254623,14.0,,,7.0,20.0
20200125_221001.geojson,smide,smide_2687,2020-01-25 22:09:21,8.54207,47.42452,ZH263529,14.0,,,7.0,20.0
20200125_221001.geojson,smide,smide_2684,2020-01-25 22:09:21,8.572765,47.349024,ZH254626,24.0,,,12.0,20.0
20200125_221001.geojson,smide,smide_2683,2020-01-25 22:09:21,8.566655,47.36494,ZH254620,39.0,,,19.0,20.0
20200125_221001.geojson,smide,smide_2680,2020-01-25 22:09:21,8.57229,47.404196,ZH254619,23.0,,,11.0,20.0
20200125_221001.geojson,smide,smide_2679,2020-01-25 22:09:21,8.576384,47.351324,ZH258489,92.0,,,46.0,17.0
20200125_221001.geojson,smide,smide_2669,2020-01-25 22:09:21,8.476649,47.387392,ZH263294,83.0,,,41.0,17.0
20200125_221001.geojson,smide,smide_2668,2020-01-25 22:09:21,8.560732,47.355692,ZH258640,100.0,,,50.0,17.0
20200125_221001.geojson,smide,smide_2666,2020-01-25 22:09:21,8.56029,47.382144,ZH258653,31.0,,,15.0,17.0
20200125_221001.geojson,smide,smide_2665,2020-01-25 22:09:21,8.521474,47.361556,ZH258644,100.0,,,50.0,17.0
20200125_221001.geojson,smide,smide_2664,2020-01-25 22:09:21,8.528705,47.380064,ZH258652,45.0,,,22.0,17.0
20200125_221001.geojson,smide,smide_2662,2020-01-25 22:09:21,8.536124,47.377624,ZH258643,84.0,,,42.0,17.0
20200125_221001.geojson,smide,smide_2648,2020-01-25 22:09:21,8.554347,47.353356,ZH257930,67.0,,,33.0,20.0
20200125_221001.geojson,smide,smide_2657,2020-01-25 22:09:21,8.575978,47.352931,ZH257936,100.0,,,50.0,17.0
20200125_221001.geojson,smide,smide_2647,2020-01-25 22:09:21,8.53672,47.366136,ZH257932,100.0,,,50.0,20.0
20200125_221001.geojson,smide,smide_2645,2020-01-25 22:09:21,8.535857,47.356268,ZH257933,23.0,,,11.0,20.0
20200125_221001.geojson,smide,smide_105,2020-01-25 22:09:21,8.539053,47.377113,ZH253804,21.0,,,10.0,17.0
20200125_221001.geojson,smide,smide_186,2020-01-25 22:09:21,8.504525,47.380908,ZH253751,70.0,,,35.0,20.0
20200125_221001.geojson,smide,smide_173,2020-01-25 22:09:21,8.541284,47.378944,ZH258501,88.0,,,44.0,17.0
20200125_221001.geojson,smide,smide_77,2020-01-25 22:09:21,8.559257,47.406056,ZH261548,84.0,,,42.0,20.0
20200125_221001.geojson,smide,smide_200,2020-01-25 22:09:21,8.499065,47.401756,ZH253801,49.0,,,24.0,20.0
20200125_221001.geojson,smide,smide_197,2020-01-25 22:09:21,8.538708,47.337643,ZH253864,75.0,,,37.0,20.0
20200125_221001.geojson,smide,smide_199,2020-01-25 22:09:21,8.538368,47.385132,ZH253766,64.0,,,32.0,20.0
20200125_221001.geojson,smide,smide_8,2020-01-25 22:09:21,8.54786,47.40336,ZH253861,59.0,,,29.0,17.0
20200125_221001.geojson,smide,smide_45,2020-01-25 22:09:21,8.542033,47.38363,ZH253716,92.0,,,46.0,17.0
20200125_221001.geojson,smide,smide_188,2020-01-25 22:09:21,8.550634,47.414568,ZH261543,60.0,,,30.0,20.0
20200125_221001.geojson,smide,smide_143,2020-01-25 22:09:21,8.506053,47.381476,ZH253778,65.0,,,32.0,17.0
20200125_221001.geojson,smide,smide_180,2020-01-25 22:09:21,8.537483,47.379968,ZH253824,92.0,,,46.0,20.0
20200125_221001.geojson,smide,smide_20,2020-01-25 22:09:21,8.54949,47.398356,ZH253770,58.0,,,28.0,20.0
20200125_221001.geojson,smide,smide_50,2020-01-25 22:09:21,8.515779,47.36458,ZH253853,44.0,,,22.0,17.0
20200125_221001.geojson,smide,smide_30,2020-01-25 22:09:21,8.545695,47.372753,ZH253813,20.0,,,10.0,20.0
20200125_221001.geojson,smide,smide_10,2020-01-25 22:09:21,8.557791,47.370456,ZH253855,37.0,,,18.0,17.0
20200125_221001.geojson,smide,smide_165,2020-01-25 22:09:21,8.544365,47.376816,ZH253752,26.0,,,13.0,17.0
20200125_221001.geojson,smide,smide_76,2020-01-25 22:09:21,8.546942,47.375804,ZH253764,20.0,,,10.0,17.0
20200125_221001.geojson,smide,smide_49,2020-01-25 22:09:21,8.56717,47.36217,ZH253873,98.0,,,49.0,17.0
20200125_221001.geojson,smide,smide_94,2020-01-25 22:09:21,8.550125,47.397864,ZH253754,83.0,,,41.0,17.0
20200125_221001.geojson,smide,smide_191,2020-01-25 22:09:21,8.478371,47.389881,ZH253762,70.0,,,35.0,17.0
20200125_221001.geojson,smide,smide_202,2020-01-25 22:09:21,8.491058,47.376735,ZH253830,100.0,,,50.0,17.0
20200125_221001.geojson,smide,smide_56,2020-01-25 22:09:21,8.574896,47.373276,ZH261442,85.0,,,42.0,20.0
20200125_221001.geojson,smide,smide_47,2020-01-25 22:09:21,8.516558,47.398218,ZH253858,92.0,,,46.0,17.0
20200125_221001.geojson,smide,smide_181,2020-01-25 22:09:21,8.545294,47.423624,ZH253815,74.0,,,37.0,17.0
20200125_221001.geojson,smide,smide_17,2020-01-25 22:09:21,8.55757,47.381598,ZH253793,100.0,,,50.0,17.0
20200125_221001.geojson,smide,smide_145,2020-01-25 22:09:21,8.582158,47.352001,ZH253780,63.0,,,31.0,20.0
20200125_221001.geojson,smide,smide_114,2020-01-25 22:09:21,8.51064,47.398508,ZH253878,53.0,,,26.0,20.0
20200125_221001.geojson,smide,smide_203,2020-01-25 22:09:21,8.541756,47.37614,ZH261547,14.0,,,7.0,17.0
20200125_221001.geojson,smide,smide_164,2020-01-25 22:09:21,8.528481,47.34692,ZH253775,14.0,,,7.0,17.0
20200125_221001.geojson,smide,smide_189,2020-01-25 22:09:21,8.535801,47.3687,ZH253845,80.0,,,40.0,20.0
20200125_221001.geojson,smide,smide_148,2020-01-25 22:09:21,8.48907,47.395736,ZH253844,46.0,,,23.0,20.0
20200125_221001.geojson,smide,smide_171,2020-01-25 22:09:21,8.544913,47.401164,ZH253689,88.0,,,44.0,20.0
20200125_221001.geojson,smide,smide_22,2020-01-25 22:09:21,8.535889,47.356236,ZH253852,69.0,,,34.0,17.0
20200125_221001.geojson,smide,smide_93,2020-01-25 22:09:21,8.555226,47.38396,ZH253681,89.0,,,44.0,17.0
20200125_221001.geojson,smide,smide_67,2020-01-25 22:09:21,8.570033,47.352324,ZH253779,100.0,,,50.0,17.0
20200125_221001.geojson,smide,smide_133,2020-01-25 22:09:21,8.509696,47.390236,ZH253848,17.0,,,8.0,20.0
20200125_221001.geojson,smide,smide_118,2020-01-25 22:09:21,8.480098,47.385475,ZH253759,87.0,,,43.0,20.0
20200125_221001.geojson,smide,smide_198,2020-01-25 22:09:21,8.546511,47.412676,ZH253836,94.0,,,47.0,17.0
20200125_221001.geojson,smide,smide_142,2020-01-25 22:09:21,8.503036,47.373796,ZH258745,100.0,,,50.0,17.0
20200125_221001.geojson,smide,smide_166,2020-01-25 22:09:21,8.541383,47.382756,ZH253728,50.0,,,25.0,17.0
20200125_221001.geojson,smide,smide_126,2020-01-25 22:09:21,8.489969,47.391528,ZH268400,53.0,,,26.0,17.0
20200125_221001.geojson,smide,smide_44,2020-01-25 22:09:21,8.563453,47.382066,ZH253837,59.0,,,29.0,17.0
20200125_221001.geojson,smide,smide_98,2020-01-25 22:09:21,8.513613,47.390131,ZH256321,74.0,,,37.0,17.0
20200125_221001.geojson,smide,smide_154,2020-01-25 22:09:21,8.524697,47.352204,ZH253744,92.0,,,46.0,20.0
20200125_221001.geojson,smide,smide_92,2020-01-25 22:09:21,8.516174,47.396968,ZH253798,55.0,,,27.0,17.0
20200125_221001.geojson,smide,smide_65,2020-01-25 22:09:21,8.531476,47.379704,ZH253810,95.0,,,47.0,17.0
20200125_221001.geojson,smide,smide_111,2020-01-25 22:09:21,8.522251,47.410796,ZH253763,56.0,,,28.0,17.0
20200125_221001.geojson,smide,smide_1,2020-01-25 22:09:21,8.529566,47.41032,ZH253776,79.0,,,39.0,17.0
20200125_221001.geojson,smide,smide_28,2020-01-25 22:09:21,8.556628,47.353596,ZH253831,84.0,,,42.0,17.0
20200125_221001.geojson,smide,smide_14,2020-01-25 22:09:21,8.567335,47.376221,ZH253749,100.0,,,50.0,20.0
20200125_221001.geojson,smide,smide_130,2020-01-25 22:09:21,8.556951,47.405292,ZH253847,70.0,,,35.0,20.0
20200125_221001.geojson,smide,smide_24,2020-01-25 22:09:21,8.532143,47.399856,ZH253696,100.0,,,50.0,20.0
20200125_221001.geojson,smide,smide_107,2020-01-25 22:09:21,8.533913,47.376968,ZH253819,36.0,,,18.0,17.0
20200125_221001.geojson,smide,smide_193,2020-01-25 22:09:21,8.5546,47.402792,ZH253738,70.0,,,35.0,20.0
20200125_221001.geojson,smide,smide_73,2020-01-25 22:09:21,8.563776,47.407875,ZH261379,100.0,,,50.0,20.0
20200125_221001.geojson,smide,smide_158,2020-01-25 22:09:21,8.549113,47.422243,ZH253870,33.0,,,16.0,20.0
20200125_221001.geojson,smide,smide_100,2020-01-25 22:09:21,8.552795,47.36254,ZH253862,72.0,,,36.0,20.0
20200125_221001.geojson,smide,smide_134,2020-01-25 22:09:21,8.560463,47.360276,ZH253741,31.0,,,15.0,20.0
20200125_221001.geojson,smide,smide_141,2020-01-25 22:09:21,8.501066,47.383753,ZH253800,78.0,,,39.0,20.0
20200125_221001.geojson,smide,smide_16,2020-01-25 22:09:21,8.494912,47.407192,ZH253713,91.0,,,45.0,20.0
20200125_221001.geojson,smide,smide_74,2020-01-25 22:09:21,8.518133,47.367632,ZH253693,64.0,,,32.0,20.0
20200125_221001.geojson,smide,smide_33,2020-01-25 22:09:21,8.496903,47.39259,ZH253782,100.0,,,50.0,20.0
20200125_221001.geojson,smide,smide_161,2020-01-25 22:09:21,8.561821,47.350316,ZH253691,38.0,,,19.0,20.0
20200125_221001.geojson,smide,smide_183,2020-01-25 22:09:21,8.536998,47.419225,ZH253868,58.0,,,28.0,17.0
20200125_221001.geojson,smide,smide_42,2020-01-25 22:09:21,8.483396,47.374648,ZH253846,20.0,,,10.0,20.0
20200125_221001.geojson,smide,smide_4,2020-01-25 22:09:21,8.562641,47.410412,ZH253740,43.0,,,21.0,20.0
20200125_221001.geojson,smide,smide_160,2020-01-25 22:09:21,8.539622,47.399732,ZH253722,69.0,,,34.0,17.0
20200125_221001.geojson,smide,smide_137,2020-01-25 22:09:21,8.55182,47.382301,ZH258502,28.0,,,14.0,17.0
20200125_221001.geojson,smide,smide_178,2020-01-25 22:09:21,8.541347,47.378904,ZH253803,83.0,,,41.0,17.0
20200125_221001.geojson,smide,smide_55,2020-01-25 22:09:21,8.558306,47.3767,ZH253875,88.0,,,44.0,17.0
20200125_221001.geojson,smide,smide_96,2020-01-25 22:09:21,8.510201,47.37116,ZH256146,91.0,,,45.0,20.0
20200125_221001.geojson,smide,smide_58,2020-01-25 22:09:21,8.519524,47.3372,ZH259246,76.0,,,38.0,20.0
20200125_221001.geojson,smide,smide_54,2020-01-25 22:09:21,8.557931,47.382716,ZH253874,67.0,,,33.0,20.0
20200125_221001.geojson,smide,smide_175,2020-01-25 22:09:21,8.493195,47.394548,ZH253730,86.0,,,43.0,17.0
20200125_221001.geojson,smide,smide_163,2020-01-25 22:09:21,8.574829,47.372092,ZH256147,100.0,,,50.0,20.0
20200125_221001.geojson,smide,smide_112,2020-01-25 22:09:21,8.556095,47.41062,ZH263530,91.0,,,45.0,20.0
20200125_221001.geojson,smide,smide_122,2020-01-25 22:09:21,8.560163,47.406664,ZH253850,61.0,,,30.0,20.0
20200125_221001.geojson,smide,smide_38,2020-01-25 22:09:21,8.551071,47.389203,ZH253851,76.0,,,38.0,20.0
20200125_221001.geojson,smide,smide_18,2020-01-25 22:09:21,8.559239,47.406008,ZH253859,90.0,,,45.0,17.0
20200125_221001.geojson,smide,smide_12,2020-01-25 22:09:21,8.549726,47.401868,ZH253685,88.0,,,44.0,17.0
20200125_221001.geojson,smide,smide_192,2020-01-25 22:09:21,8.564556,47.3674,ZH253706,72.0,,,36.0,20.0
20200125_221001.geojson,smide,smide_39,2020-01-25 22:09:21,8.554423,47.417892,ZH253714,46.0,,,23.0,20.0
20200125_221001.geojson,smide,smide_5,2020-01-25 22:09:21,8.558008,47.35265,ZH261443,71.0,,,35.0,20.0
20200125_221001.geojson,smide,smide_85,2020-01-25 22:09:21,8.522116,47.365761,ZH253729,67.0,,,33.0,17.0
20200125_221001.geojson,smide,smide_29,2020-01-25 22:09:21,8.562733,47.404312,ZH253723,10.0,,,5.0,17.0
20200125_221001.geojson,smide,smide_48,2020-01-25 22:09:21,8.543804,47.37194,ZH253849,22.0,,,11.0,20.0
20200125_221001.geojson,smide,smide_46,2020-01-25 22:09:21,8.554831,47.37732,ZH253843,50.0,,,25.0,20.0
20200125_221001.geojson,bird,bird_b4b91381-66ec-4a3b-93c1-abba5f0ed3ca,2020-01-25 22:09:21,8.50876166666667,47.3798833333333,,60.0,,,,
20200125_221001.geojson,bird,bird_1f672f49-5ae4-4a8f-ac80-87eb608dcdb4,2020-01-25 22:09:21,8.53651833333333,47.3663333333333,,90.0,,,,
20200125_221001.geojson,bird,bird_5611c369-0c1b-43ab-8b03-ef28e6b1069c,2020-01-25 22:09:21,8.51787166666667,47.3917816666667,,65.0,,,,
20200125_221001.geojson,bird,bird_aa4256a7-fe42-4dc5-9450-f04ef9071624,2020-01-25 22:09:21,8.53654166666667,47.3663483333333,,62.0,,,,
20200125_221001.geojson,bird,bird_ad6e1878-7ff8-459e-8fdc-cad35de15f9d,2020-01-25 22:09:21,8.54990333333333,47.384525,,54.0,,,,
20200125_221001.geojson,bird,bird_d9dbd0eb-63b6-4992-8000-86c8c0f50090,2020-01-25 22:09:21,8.51519333333333,47.3699416666667,,65.0,,,,
20200125_221001.geojson,bird,bird_a8e17aff-57c8-4393-b6c3-4a387398179b,2020-01-25 22:09:21,8.51182666666667,47.3729166666667,,65.0,,,,
20200125_221001.geojson,bird,bird_d7a769d2-fd00-40db-8a84-aca5b77e19e7,2020-01-25 22:09:21,8.52778,47.3940616666667,,90.0,,,,
20200125_221001.geojson,bird,bird_f36f83a3-d00a-403b-84c6-157cc3e914d4,2020-01-25 22:09:21,8.50944,47.3781666666667,,21.0,,,,
20200125_221001.geojson,bird,bird_323468ef-ffa9-4d52-b889-5821e0abdd31,2020-01-25 22:09:21,8.52929666666667,47.39391,,29.0,,,,
20200125_221001.geojson,bird,bird_4871bd85-aed1-4e64-b99f-8b6c3a2c843b,2020-01-25 22:09:21,8.53082166666667,47.366195,,88.0,,,,
20200125_221001.geojson,bird,bird_683ec623-800c-43c2-b4bc-58d83431fbdc,2020-01-25 22:09:21,8.50999833333333,47.3773566666667,,81.0,,,,
20200125_221001.geojson,bird,bird_a01973b2-114a-47b4-8abe-5e7c607a1219,2020-01-25 22:09:21,8.50984333333333,47.378345,,99.0,,,,
20200125_221001.geojson,bird,bird_1e17a3cc-7414-460d-9cc9-0f4a49721ea2,2020-01-25 22:09:21,8.543405,47.3697166666667,,21.0,,,,
20200125_221001.geojson,bird,bird_51e8ba30-d0d3-43d5-9180-3009c19338ba,2020-01-25 22:09:21,8.52658666666667,47.39352,,62.0,,,,
20200125_221001.geojson,bird,bird_86b75fe3-564f-4e96-abd8-392d55060f67,2020-01-25 22:09:21,8.516925,47.390465,,88.0,,,,
20200125_221001.geojson,bird,bird_ea7e2620-b8a0-4437-a007-3b8d7dc4a0f0,2020-01-25 22:09:21,8.510345,47.3767816666667,,70.0,,,,
20200125_221001.geojson,bird,bird_efa1b072-dd27-48a6-86a6-647253e97036,2020-01-25 22:09:21,8.55003166666667,47.3814733333333,,43.0,,,,
20200125_221001.geojson,bird,bird_b4ee4fa8-342f-4146-a68c-3f7a498816de,2020-01-25 22:09:21,8.51336833333333,47.3724516666667,,36.0,,,,
20200125_221001.geojson,bird,bird_4e551fad-4e88-4e1f-8ae9-07e5cd93f819,2020-01-25 22:09:21,8.51021,47.3783866666667,,51.0,,,,
20200125_221001.geojson,bird,bird_379d9e96-b03c-4511-8799-3bce6f504a5d,2020-01-25 22:09:21,8.51013333333333,47.3801766666667,,46.0,,,,
20200125_221001.geojson,bird,bird_b83fbdde-7d04-40e8-af35-14091ed54c7c,2020-01-25 22:09:21,8.53342666666667,47.3667683333333,,18.0,,,,
20200125_221001.geojson,bird,bird_5c8d9973-2ca8-42bd-997a-3308eecc160f,2020-01-25 22:09:21,8.513085,47.3867683333333,,11.0,,,,
20200125_221001.geojson,bird,bird_f59465e4-e24e-4a2f-865a-bbed57de7f37,2020-01-25 22:09:21,8.513125,47.3867533333333,,33.0,,,,
20200125_221001.geojson,bird,bird_7b2621af-6f8a-46f0-b105-83bbaf9a7452,2020-01-25 22:09:21,8.51060166666667,47.3781083333333,,100.0,,,,
20200125_221001.geojson,bird,bird_e3458e73-8f3b-41d7-92da-1d4b005f2ee6,2020-01-25 22:09:21,8.51058166666667,47.37841,,98.0,,,,
20200125_221001.geojson,bird,bird_a9ff1191-ef5b-4284-80d9-125c690c219f,2020-01-25 22:09:21,8.51064666666667,47.37817,,100.0,,,,
20200125_221001.geojson,bird,bird_dd0e3169-ef3c-4f98-8742-6771f0a3a624,2020-01-25 22:09:21,8.52811166666667,47.3668483333333,,10.0,,,,
20200125_221001.geojson,bird,bird_e023f507-609b-4b46-90f0-322f7e9597f8,2020-01-25 22:09:21,8.51381166666667,47.3873666666667,,75.0,,,,
20200125_221001.geojson,bird,bird_9a091c59-af0e-42de-94a5-2e2959d6bd25,2020-01-25 22:09:21,8.515275,47.37146,,30.0,,,,
20200125_221001.geojson,bird,bird_3a166c3b-5359-41d0-b451-10843d03c23e,2020-01-25 22:09:21,8.540625,47.3690533333333,,18.0,,,,
20200125_221001.geojson,bird,bird_b88778a3-a45e-43dd-a611-1b56ec455b06,2020-01-25 22:09:21,8.54194666666667,47.36977,,24.0,,,,
20200125_221001.geojson,bird,bird_97439f27-b28f-4fa2-ad1e-26d1c9f2e0c2,2020-01-25 22:09:21,8.52454333333333,47.39222,,45.0,,,,
20200125_221001.geojson,bird,bird_204b365c-fb87-48db-87f1-0250258a3889,2020-01-25 22:09:21,8.51161333333333,47.3775483333333,,74.0,,,,
20200125_221001.geojson,bird,bird_17683940-c671-490f-81f3-4e2dc1d94777,2020-01-25 22:09:21,8.51367666666667,47.3737833333333,,76.0,,,,
20200125_221001.geojson,bird,bird_38bae634-dc1a-4ce1-9db1-f6b74efd05c0,2020-01-25 22:09:21,8.54423666666667,47.3721466666667,,61.0,,,,
20200125_221001.geojson,bird,bird_88965b7a-1755-4372-920d-b816135a9f68,2020-01-25 22:09:21,8.54296,47.3712116666667,,64.0,,,,
20200125_221001.geojson,bird,bird_54a23fc3-dabc-46c3-a83a-a134135dc4be,2020-01-25 22:09:21,8.53724666666667,47.3686033333333,,96.0,,,,
20200125_221001.geojson,bird,bird_0704547e-4a58-499a-937d-42f1fa7b0b60,2020-01-25 22:09:21,8.51190833333333,47.37804,,37.0,,,,
20200125_221001.geojson,bird,bird_2648a016-0af4-4565-b743-d479f871b1a9,2020-01-25 22:09:21,8.51776833333333,47.3707916666667,,53.0,,,,
20200125_221001.geojson,bird,bird_e4dde5b3-87ce-4fdf-98cb-a8c66dee25a8,2020-01-25 22:09:21,8.52188833333333,47.391075,,25.0,,,,
20200125_221001.geojson,bird,bird_c3db1b4c-0634-4555-8928-77df8c115e3d,2020-01-25 22:09:21,8.51399166666667,47.3741566666667,,62.0,,,,
20200125_221001.geojson,bird,bird_e5f9566f-0b9a-4706-b3a6-8fa1e0370ec1,2020-01-25 22:09:21,8.52645833333333,47.3920016666667,,37.0,,,,
20200125_221001.geojson,bird,bird_944187ab-6c38-4d87-b1da-5020e95dd864,2020-01-25 22:09:21,8.51795833333333,47.3709633333333,,74.0,,,,
20200125_221001.geojson,bird,bird_4d9c2d2f-b230-4032-a885-7e99075704cf,2020-01-25 22:09:21,8.54477333333333,47.3731733333333,,53.0,,,,
20200125_221001.geojson,bird,bird_1535b90f-c69e-4e77-b3b9-96e9c0d9ba56,2020-01-25 22:09:21,8.512165,47.380135,,83.0,,,,
20200125_221001.geojson,bird,bird_ca645e27-225a-4887-83a0-190ee3d9a7d4,2020-01-25 22:09:21,8.53833666666667,47.369355,,100.0,,,,
20200125_221001.geojson,bird,bird_d01fa599-aa72-428b-ab5a-e4712401bb67,2020-01-25 22:09:21,8.51799833333333,47.388855,,61.0,,,,
20200125_221001.geojson,bird,bird_28e75587-7c9d-4335-95e4-34c43ff14959,2020-01-25 22:09:21,8.53877666666667,47.36966,,94.0,,,,
20200125_221001.geojson,bird,bird_a1436833-9eb0-4cbd-af98-18773423b55d,2020-01-25 22:09:21,8.54374166666667,47.3725616666667,,38.0,,,,
20200125_221001.geojson,bird,bird_271b86c0-4636-455b-a1af-c5aa62be6721,2020-01-25 22:09:21,8.54732166666667,47.3820383333333,,30.0,,,,
20200125_221001.geojson,bird,bird_eef831f9-ad2a-4ed2-970c-7e0b239ca849,2020-01-25 22:09:21,8.54370166666667,47.3725616666667,,70.0,,,,
20200125_221001.geojson,bird,bird_76157a92-991d-490b-a277-c3cbd2672025,2020-01-25 22:09:21,8.54368166666667,47.3725583333333,,38.0,,,,
20200125_221001.geojson,bird,bird_2cf5700a-2693-408b-9bd6-6fae2ca9b5c8,2020-01-25 22:09:21,8.51422333333333,47.37487,,94.0,,,,
20200125_221001.geojson,bird,bird_ac9cfd31-73df-4190-aa1e-89f6c6c1aa8f,2020-01-25 22:09:21,8.51304833333333,47.3775016666667,,78.0,,,,
20200125_221001.geojson,bird,bird_379df6bb-1367-4b91-b588-0571093927cd,2020-01-25 22:09:21,8.515065,47.3741183333333,,75.0,,,,
20200125_221001.geojson,bird,bird_592da14f-0d3b-4c1b-82e3-4d8f3de40bfc,2020-01-25 22:09:21,8.54513166666667,47.3854133333333,,20.0,,,,
20200125_221001.geojson,bird,bird_eff0348b-1ed0-4706-96b7-d170a4b2ce40,2020-01-25 22:09:21,8.54391333333333,47.3733333333333,,91.0,,,,
20200125_221001.geojson,bird,bird_111ba1c6-97df-4d33-97db-c34eb1f36f4c,2020-01-25 22:09:21,8.54377666666667,47.3732216666667,,21.0,,,,
20200125_221001.geojson,bird,bird_e835e0e5-bb09-4e4d-b8bf-37526770a78a,2020-01-25 22:09:21,8.54469833333333,47.3742333333333,,27.0,,,,
20200125_221001.geojson,bird,bird_e780f552-930d-4d19-b243-48758cc24005,2020-01-25 22:09:21,8.522075,47.3901133333333,,63.0,,,,
20200125_221001.geojson,bird,bird_6d550503-da36-42d1-9b89-995315082b02,2020-01-25 22:09:21,8.53909833333333,47.3896333333333,,30.0,,,,
20200125_221001.geojson,bird,bird_88ac5c55-cc9e-4273-ab4c-4de376e5ff19,2020-01-25 22:09:21,8.51606,47.3864166666667,,66.0,,,,
20200125_221001.geojson,bird,bird_52fb76b1-505b-48a2-ba00-a12c6aa787f9,2020-01-25 22:09:21,8.53620833333333,47.3906016666667,,61.0,,,,
20200125_221001.geojson,bird,bird_80f3f1e9-098a-4b69-a13e-30ed9361737b,2020-01-25 22:09:21,8.54374333333333,47.3734933333333,,38.0,,,,
20200125_221001.geojson,bird,bird_94545041-8c09-473b-b033-476b877965f2,2020-01-25 22:09:21,8.53701,47.39022,,18.0,,,,
20200125_221001.geojson,bird,bird_3bb7561b-3959-4dc2-adda-f3caf222bfda,2020-01-25 22:09:21,8.51649333333333,47.3865466666667,,71.0,,,,
20200125_221001.geojson,bird,bird_1d61c009-acc8-4f85-af47-aba7dd6b4d69,2020-01-25 22:09:21,8.52137833333333,47.3895533333333,,46.0,,,,
20200125_221001.geojson,bird,bird_f77d352e-e27c-4578-a23c-4fe55692db1e,2020-01-25 22:09:21,8.51537833333333,47.3748666666667,,31.0,,,,
20200125_221001.geojson,bird,bird_bfe63445-dd37-4c8b-91e5-7e09921dee38,2020-01-25 22:09:21,8.51373333333333,47.3782533333333,,80.0,,,,
20200125_221001.geojson,bird,bird_0e1b9ad8-746e-4ee6-9882-12e7364c9923,2020-01-25 22:09:21,8.51380666666667,47.3817983333333,,37.0,,,,
20200125_221001.geojson,bird,bird_94872a77-c274-4b5e-ae83-279710bab1b0,2020-01-25 22:09:21,8.51671833333333,47.3865016666667,,39.0,,,,
20200125_221001.geojson,bird,bird_0654ac44-0ccd-4445-a4f9-0bafff4e2cd8,2020-01-25 22:09:21,8.52393,47.3696983333333,,21.0,,,,
20200125_221001.geojson,bird,bird_115e12b9-a97b-4881-ac92-fa5d110b66bf,2020-01-25 22:09:21,8.53670333333333,47.3699383333333,,64.0,,,,
20200125_221001.geojson,bird,bird_f5716720-98f4-4697-b8fe-d8738287f078,2020-01-25 22:09:21,8.52,47.3887016666667,,99.0,,,,
20200125_221001.geojson,bird,bird_d09685ab-9942-42ad-9327-e5b96b5d4747,2020-01-25 22:09:21,8.52005166666667,47.3887183333333,,97.0,,,,
20200125_221001.geojson,bird,bird_4e1c91c8-3150-4a43-a073-f94745761cd4,2020-01-25 22:09:21,8.51461666666667,47.3764383333333,,70.0,,,,
20200125_221001.geojson,bird,bird_a08715ba-cfe1-4838-aa46-1acaefbee90e,2020-01-25 22:09:21,8.54439333333333,47.374965,,13.0,,,,
20200125_221001.geojson,bird,bird_7db39730-9f44-48da-8d11-c6784848b84b,2020-01-25 22:09:21,8.546135,47.3804583333333,,54.0,,,,
20200125_221001.geojson,bird,bird_35bc14a2-fc2f-45ce-8276-d6f8d425d065,2020-01-25 22:09:21,8.52219833333333,47.3894916666667,,58.0,,,,
20200125_221001.geojson,bird,bird_b2757927-7de7-400f-930f-4f7330a0b528,2020-01-25 22:09:21,8.514625,47.3770716666667,,47.0,,,,
20200125_221001.geojson,bird,bird_f458b775-e25e-45aa-9011-29267cbee210,2020-01-25 22:09:21,8.52198666666667,47.38929,,90.0,,,,
20200125_221001.geojson,bird,bird_76e481d4-0dbe-4bcb-bc53-d01ddd1a2a27,2020-01-25 22:09:21,8.51724166666667,47.3862766666667,,73.0,,,,
20200125_221001.geojson,bird,bird_e95ff8a0-8b80-4d43-a8d9-03a14bc47b79,2020-01-25 22:09:21,8.54483166666667,47.3764116666667,,69.0,,,,
20200125_221001.geojson,bird,bird_d89deffc-72d2-4e5b-9dc9-98c534984a93,2020-01-25 22:09:21,8.53725166666667,47.3893433333333,,21.0,,,,
20200125_221001.geojson,bird,bird_5f3f52ce-51ef-43c1-9a7b-0a6e967ff1bd,2020-01-25 22:09:21,8.52657333333333,47.3697083333333,,24.0,,,,
20200125_221001.geojson,bird,bird_8231dbaf-6e70-48fc-abcf-420b64df94a8,2020-01-25 22:09:21,8.53948666666667,47.3882866666667,,17.0,,,,
20200125_221001.geojson,bird,bird_2c781264-5614-4579-b4eb-3818e9d02f95,2020-01-25 22:09:21,8.52040833333333,47.3882066666667,,22.0,,,,
20200125_221001.geojson,bird,bird_4228fcfc-1b6d-4b1b-9974-09b2bdf46712,2020-01-25 22:09:21,8.52044833333333,47.3882133333333,,99.0,,,,
20200125_221001.geojson,bird,bird_6d7589ba-497d-497d-a3e9-79ab36daaea3,2020-01-25 22:09:21,8.52024833333333,47.3880616666667,,98.0,,,,
20200125_221001.geojson,bird,bird_31c5835b-db4b-4414-84c3-dfecc770eb93,2020-01-25 22:09:21,8.52028,47.3880616666667,,96.0,,,,
20200125_221001.geojson,bird,bird_966ff40e-eb61-4dcb-ae35-401fc809216d,2020-01-25 22:09:21,8.52502,47.37019,,22.0,,,,
20200125_221001.geojson,bird,bird_6936cc04-7e04-4e83-a441-f7468036079b,2020-01-25 22:09:21,8.51931166666667,47.3872683333333,,35.0,,,,
20200125_221001.geojson,bird,bird_0af5e124-9387-4250-a48f-a4ca9018ef99,2020-01-25 22:09:21,8.51940666666667,47.387325,,89.0,,,,
20200125_221001.geojson,bird,bird_7a505379-9fd8-44ae-95d2-beb9bb675247,2020-01-25 22:09:21,8.53522333333333,47.3703883333333,,74.0,,,,
20200125_221001.geojson,bird,bird_49c7132b-2144-4ce1-94a1-d8af3354376a,2020-01-25 22:09:21,8.52210333333333,47.3887283333333,,75.0,,,,
20200125_221001.geojson,bird,bird_1dba2a90-acbc-4cb5-8949-3f100ef86595,2020-01-25 22:09:21,8.544685,47.3823166666667,,13.0,,,,
20200125_221001.geojson,bird,bird_76d516a7-ec8d-4367-9a1a-595b9ef4966a,2020-01-25 22:09:21,8.540575,47.3871883333333,,71.0,,,,
20200125_221001.geojson,bird,bird_cadaea06-426d-4f02-9f74-cd14a3f5e39b,2020-01-25 22:09:21,8.51816666666667,47.37381,,93.0,,,,
20200125_221001.geojson,bird,bird_9f36f4e4-fd46-4f66-aa52-2b460f313bd4,2020-01-25 22:09:21,8.543895,47.3762933333333,,98.0,,,,
20200125_221001.geojson,bird,bird_e4e7cc2c-f1c0-4da2-a09e-ace176f33a7b,2020-01-25 22:09:21,8.51846666666667,47.3736033333333,,66.0,,,,
20200125_221001.geojson,bird,bird_0d00532f-03d8-488e-a934-7829ac2b94d6,2020-01-25 22:09:21,8.51679666666667,47.37547,,100.0,,,,
20200125_221001.geojson,bird,bird_617b041d-3922-49d1-8ec3-f3a00361b1ee,2020-01-25 22:09:21,8.54387666666667,47.3765216666667,,88.0,,,,
20200125_221001.geojson,bird,bird_bd8c70e0-288b-4172-a998-2bf84c14593b,2020-01-25 22:09:21,8.51808333333333,47.37408,,74.0,,,,
20200125_221001.geojson,bird,bird_90d08205-e279-48bf-ad6b-d351f0d43f02,2020-01-25 22:09:21,8.53981333333333,47.372555,,88.0,,,,
20200125_221001.geojson,bird,bird_da6808a0-59b7-4ca0-ba59-3c0691f0198c,2020-01-25 22:09:21,8.51666333333333,47.3757816666667,,100.0,,,,
20200125_221001.geojson,bird,bird_951badb6-36e2-42b9-84ff-c1e3003082b9,2020-01-25 22:09:21,8.51832666666667,47.3860666666667,,97.0,,,,
20200125_221001.geojson,bird,bird_e9265979-d981-45b0-8d7b-a769b202484b,2020-01-25 22:09:21,8.516695,47.375755,,92.0,,,,
20200125_221001.geojson,bird,bird_63649de7-0d09-4da3-b5ae-bc490ddeb9a0,2020-01-25 22:09:21,8.52325,47.3711516666667,,99.0,,,,
20200125_221001.geojson,bird,bird_91ecb3e4-bc82-47ce-a502-fb574da3856c,2020-01-25 22:09:21,8.54356333333333,47.3762316666667,,98.0,,,,
20200125_221001.geojson,bird,bird_07fe46aa-ffdc-4e9e-8d95-09f49c9e1e74,2020-01-25 22:09:21,8.522355,47.388455,,74.0,,,,
20200125_221001.geojson,bird,bird_eecb09b5-01ae-4f98-8385-d07e9772a287,2020-01-25 22:09:21,8.52154833333333,47.3880916666667,,73.0,,,,
20200125_221001.geojson,bird,bird_1e8e1280-cda2-4c7e-bbc3-4f6f6188bcd0,2020-01-25 22:09:21,8.51585166666667,47.38247,,38.0,,,,
20200125_221001.geojson,bird,bird_b39d174a-19b2-4039-8b21-f9bc77159ece,2020-01-25 22:09:21,8.51601666666667,47.3825983333333,,24.0,,,,
20200125_221001.geojson,bird,bird_c9720fad-be5b-4d18-a2fa-bc3d0d856e04,2020-01-25 22:09:21,8.51825333333333,47.3857416666667,,91.0,,,,
20200125_221001.geojson,bird,bird_56926520-73b5-4a37-aacd-0d21b4842d33,2020-01-25 22:09:21,8.52246333333333,47.371635,,28.0,,,,
20200125_221001.geojson,bird,bird_0f798bd2-8b03-443c-a017-0d86903d44f4,2020-01-25 22:09:21,8.52273333333333,47.3716233333333,,44.0,,,,
20200125_221001.geojson,bird,bird_2e919664-8ed5-4e85-adde-1c020b0bc03c,2020-01-25 22:09:21,8.51597,47.3789366666667,,73.0,,,,
20200125_221001.geojson,bird,bird_663be6c8-72ab-481e-b814-a2f82f031d98,2020-01-25 22:09:21,8.54229333333333,47.3844416666667,,70.0,,,,
20200125_221001.geojson,bird,bird_a54cf6b5-5213-4758-8118-b9d493897866,2020-01-25 22:09:21,8.51916333333333,47.3858266666667,,97.0,,,,
20200125_221001.geojson,bird,bird_0a9dff19-b41a-4e2b-acd6-78eb951f82e1,2020-01-25 22:09:21,8.519385,47.3859833333333,,98.0,,,,
20200125_221001.geojson,bird,bird_f4836c52-43b3-4393-9905-787e7536e6ab,2020-01-25 22:09:21,8.52318166666667,47.3718716666667,,82.0,,,,
20200125_221001.geojson,bird,bird_5555f8b6-5c36-460e-b65e-4324e19cb64d,2020-01-25 22:09:21,8.51805166666667,47.3753583333333,,75.0,,,,
20200125_221001.geojson,bird,bird_b75015be-00b8-43b7-a571-026e5a977916,2020-01-25 22:09:21,8.51863833333333,47.3852683333333,,96.0,,,,
20200125_221001.geojson,bird,bird_8ab2d808-4452-454e-8a37-4947fed1ef43,2020-01-25 22:09:21,8.52000666666667,47.3736266666667,,63.0,,,,
20200125_221001.geojson,bird,bird_6e06d253-7222-482f-8f20-330122421884,2020-01-25 22:09:21,8.51937666666667,47.3858183333333,,92.0,,,,
20200125_221001.geojson,bird,bird_55a13891-ebf6-4dd9-a351-dcc07a6a658a,2020-01-25 22:09:21,8.51710666666667,47.3775633333333,,29.0,,,,
20200125_221001.geojson,bird,bird_bc566238-8c62-44c8-b068-f4ad91959d12,2020-01-25 22:09:21,8.52484,47.3716933333333,,25.0,,,,
20200125_221001.geojson,bird,bird_b3c0f805-e22f-4abd-a79b-8eec334d0640,2020-01-25 22:09:21,8.524265,47.3880583333333,,96.0,,,,
20200125_221001.geojson,bird,bird_65b04c70-8cd0-404a-90ee-d5efce40841e,2020-01-25 22:09:21,8.528175,47.37128,,64.0,,,,
20200125_221001.geojson,bird,bird_5bbfc236-f483-423b-ac55-acf838ca54e3,2020-01-25 22:09:21,8.53429333333333,47.3880316666667,,92.0,,,,
20200125_221001.geojson,bird,bird_ac317a5f-5b86-44da-9b79-8770ea2b68c9,2020-01-25 22:09:21,8.53685833333333,47.372955,,82.0,,,,
20200125_221001.geojson,bird,bird_3ca1c68d-734e-4659-a692-26a1136c0cd7,2020-01-25 22:09:21,8.52075,47.385635,,11.0,,,,
20200125_221001.geojson,bird,bird_9c7a7b85-dadf-49c8-9d28-075ec04aeb37,2020-01-25 22:09:21,8.517725,47.3811766666667,,46.0,,,,
20200125_221001.geojson,bird,bird_bc5d1957-eb0e-4464-9b47-b4b74d48fc3b,2020-01-25 22:09:21,8.53451,47.3722083333333,,20.0,,,,
20200125_221001.geojson,bird,bird_8496a95c-11aa-4744-9b91-31c4295a4364,2020-01-25 22:09:21,8.52071666666667,47.3744933333333,,39.0,,,,
20200125_221001.geojson,bird,bird_fa900040-d38f-4f74-ba98-045257e47233,2020-01-25 22:09:21,8.53680833333333,47.3730583333333,,29.0,,,,
20200125_221001.geojson,bird,bird_3585ee86-e7c2-464a-ac1b-5956a549c338,2020-01-25 22:09:21,8.53882833333333,47.3856766666667,,48.0,,,,
20200125_221001.geojson,bird,bird_69ea2e05-ad25-4311-b8d7-1401251dc2dc,2020-01-25 22:09:21,8.54075666666666,47.3764266666667,,26.0,,,,
20200125_221001.geojson,bird,bird_c9df5b18-b1c1-4c7f-a7b3-611a6d1c2008,2020-01-25 22:09:21,8.541545,47.3820716666667,,33.0,,,,
20200125_221001.geojson,bird,bird_18f98824-965f-4f1f-ac85-e32bcd021c1d,2020-01-25 22:09:21,8.537065,47.3735,,31.0,,,,
20200125_221001.geojson,bird,bird_11fb19f9-b8e0-4390-b31e-53d60e35432e,2020-01-25 22:09:21,8.53695333333333,47.3737266666667,,69.0,,,,
20200125_221001.geojson,bird,bird_82e01386-5572-4878-bc6b-4f180cec59c9,2020-01-25 22:09:21,8.519675,47.3765266666667,,42.0,,,,
20200125_221001.geojson,bird,bird_3a097be1-239f-48b7-8977-6a11eb8a9fc0,2020-01-25 22:09:21,8.53225833333333,47.3723633333333,,39.0,,,,
20200125_221001.geojson,bird,bird_9cc48e23-70cd-4cd2-9dcc-985dde37c252,2020-01-25 22:09:21,8.541185,47.37833,,71.0,,,,
20200125_221001.geojson,bird,bird_c9b276e1-c353-40c0-b1e4-c40fb69664ae,2020-01-25 22:09:21,8.52265,47.3743933333333,,72.0,,,,
20200125_221001.geojson,bird,bird_f012698d-ff10-47be-a5e4-20dd674b0f88,2020-01-25 22:09:21,8.51946,47.3787533333333,,22.0,,,,
20200125_221001.geojson,bird,bird_31775b61-864a-453e-a9d5-36c23f82de63,2020-01-25 22:09:21,8.53533,47.37392,,55.0,,,,
20200125_221001.geojson,bird,bird_8efb14a7-1124-4132-8f94-a9c1e0a22dcc,2020-01-25 22:09:21,8.538335,47.3759266666667,,98.0,,,,
20200125_221001.geojson,bird,bird_dac0f7de-147c-4a8c-a0c3-eabee1b4b28c,2020-01-25 22:09:21,8.538405,47.37603,,91.0,,,,
20200125_221001.geojson,bird,bird_7bb642f5-166a-44ad-ad52-aa47929a5101,2020-01-25 22:09:21,8.52059666666667,47.3776783333333,,51.0,,,,
20200125_221001.geojson,bird,bird_d4660c10-d6f6-4f77-9e70-1d3ac91a5647,2020-01-25 22:09:21,8.53913166666667,47.3773566666667,,88.0,,,,
20200125_221001.geojson,bird,bird_da150727-68da-48af-a601-426b64decaa5,2020-01-25 22:09:21,8.53658333333333,47.3751716666667,,20.0,,,,
20200125_221001.geojson,bird,bird_4dddce3c-c353-423e-a5f6-67589bf72d66,2020-01-25 22:09:21,8.52877666666667,47.3734966666667,,75.0,,,,
20200125_221001.geojson,bird,bird_a9972745-f07b-4568-ae9a-87a79193eb0e,2020-01-25 22:09:21,8.53096833333333,47.37349,,75.0,,,,
20200125_221001.geojson,bird,bird_ef2ef916-a29f-44fb-83f3-cf465b98d61d,2020-01-25 22:09:21,8.53878666666666,47.3772933333333,,62.0,,,,
20200125_221001.geojson,bird,bird_eead9c2c-c968-482d-a3f7-c1509e59b515,2020-01-25 22:09:21,8.52782,47.386265,,10.0,,,,
20200125_221001.geojson,bird,bird_da0a4d45-053c-4e14-8570-d4d02fad0bd6,2020-01-25 22:09:21,8.53817,47.3768083333333,,91.0,,,,
20200125_221001.geojson,bird,bird_8e3bea06-92be-431d-b38f-a500a2aca91c,2020-01-25 22:09:21,8.53827166666667,47.3769383333333,,43.0,,,,
20200125_221001.geojson,bird,bird_8924b8b2-dc6a-4a67-81bf-dcc7c4ae1eb2,2020-01-25 22:09:21,8.52066,47.37915,,39.0,,,,
20200125_221001.geojson,bird,bird_06d4674e-fd28-4a41-add6-f453d57c45e8,2020-01-25 22:09:21,8.52098166666667,47.3782,,26.0,,,,
20200125_221001.geojson,bird,bird_6f7570c7-6e4a-4a1b-86cd-afd0ba752e22,2020-01-25 22:09:21,8.52444,47.3749383333333,,73.0,,,,
20200125_221001.geojson,bird,bird_95b68573-5bbc-40b7-89d1-e675c665eebf,2020-01-25 22:09:21,8.52682166666667,47.385575,,69.0,,,,
20200125_221001.geojson,bird,bird_36caba3f-5209-4070-900d-f40a42341fdc,2020-01-25 22:09:21,8.52670666666667,47.3855433333333,,72.0,,,,
20200125_221001.geojson,bird,bird_1b201e57-062f-4b5b-96ce-dc37a07da878,2020-01-25 22:09:21,8.53666,47.383515,,40.0,,,,
20200125_221001.geojson,bird,bird_58a03d4c-91bb-442b-ba6e-5745d112683c,2020-01-25 22:09:21,8.53772,47.3777883333333,,96.0,,,,
20200125_221001.geojson,bird,bird_6daedd3b-40fc-421c-981c-76da8bf9d5bd,2020-01-25 22:09:21,8.53765333333333,47.3777466666667,,96.0,,,,
20200125_221001.geojson,bird,bird_d6a8bd64-814f-4ad6-b837-f46e329c17ad,2020-01-25 22:09:21,8.530855,47.37447,,72.0,,,,
20200125_221001.geojson,bird,bird_67b52a24-e058-4407-ad18-43542d7e6d63,2020-01-25 22:09:21,8.53771,47.3796466666667,,81.0,,,,
20200125_221001.geojson,bird,bird_404a149d-3d95-402d-999c-b2d5700507f9,2020-01-25 22:09:21,8.522555,47.378605,,34.0,,,,
20200125_221001.geojson,bird,bird_b8058026-899a-420c-af7f-e5f57d97b225,2020-01-25 22:09:21,8.53770666666667,47.3796916666667,,98.0,,,,
20200125_221001.geojson,bird,bird_508f1998-e877-41e2-a612-be7b70e0cc92,2020-01-25 22:09:21,8.52250833333333,47.3790016666667,,49.0,,,,
20200125_221001.geojson,bird,bird_8b41bdba-f277-4cd7-b51d-d35bbb1f7f60,2020-01-25 22:09:21,8.53146666666667,47.38507,,49.0,,,,
20200125_221001.geojson,bird,bird_837a5065-baef-405d-b231-38ceb95c3757,2020-01-25 22:09:21,8.52241666666667,47.38012,,74.0,,,,
20200125_221001.geojson,bird,bird_28740926-f430-495a-9bf2-63c132c3fb5b,2020-01-25 22:09:21,8.5268,47.3753433333333,,62.0,,,,
20200125_221001.geojson,bird,bird_11bc9108-d6b6-4556-b11e-71b1411e1156,2020-01-25 22:09:21,8.5374,47.3795616666667,,98.0,,,,
20200125_221001.geojson,bird,bird_7b4001cf-08ab-4980-886e-670cf6c379fc,2020-01-25 22:09:21,8.52281833333333,47.3788383333333,,48.0,,,,
20200125_221001.geojson,bird,bird_090dfa3c-bcea-4870-8ee1-14f9251e4276,2020-01-25 22:09:21,8.531255,47.384865,,94.0,,,,
20200125_221001.geojson,bird,bird_b3006b8c-1066-4b9b-9f3a-e0eae7768991,2020-01-25 22:09:21,8.53349,47.384285,,29.0,,,,
20200125_221001.geojson,bird,bird_73548a8b-ea8d-4acd-9f96-c2828ad42080,2020-01-25 22:09:21,8.53716833333333,47.380035,,69.0,,,,
20200125_221001.geojson,bird,bird_a4515d8b-40fd-4ce1-9af2-f1755db80bc1,2020-01-25 22:09:21,8.53646,47.3780133333333,,98.0,,,,
20200125_221001.geojson,bird,bird_b583f4b6-d94e-441f-ab8c-80621e40e74c,2020-01-25 22:09:21,8.536165,47.377625,,73.0,,,,
20200125_221001.geojson,bird,bird_ee2886f6-d003-4a63-9baa-0dbdd11ff3e5,2020-01-25 22:09:21,8.536445,47.3780066666667,,98.0,,,,
20200125_221001.geojson,bird,bird_4c0d0e90-9bd4-47f1-aadf-f199a900c1f3,2020-01-25 22:09:21,8.53569,47.3772583333333,,40.0,,,,
20200125_221001.geojson,bird,bird_1f83436c-598d-4537-85bb-20b504a7057b,2020-01-25 22:09:21,8.52571333333333,47.3762933333333,,98.0,,,,
20200125_221001.geojson,bird,bird_e9178141-75cc-48d0-8699-12d1d282784a,2020-01-25 22:09:21,8.53687,47.3796083333333,,11.0,,,,
20200125_221001.geojson,bird,bird_8de68b03-36d5-4997-922d-4333096c0550,2020-01-25 22:09:21,8.52334166666667,47.3789566666667,,48.0,,,,
20200125_221001.geojson,bird,bird_10f9ae49-bea1-4e38-a654-8231b6f68406,2020-01-25 22:09:21,8.53168333333333,47.3844333333333,,70.0,,,,
20200125_221001.geojson,bird,bird_f85a07e8-d4f0-4931-a76f-61b58076d745,2020-01-25 22:09:21,8.52868333333333,47.3755416666667,,72.0,,,,
20200125_221001.geojson,bird,bird_18236796-bfd5-4749-af2d-fb71a6abebf3,2020-01-25 22:09:21,8.53202166666667,47.3843083333333,,83.0,,,,
20200125_221001.geojson,bird,bird_7a0bb055-fcf5-4173-9b50-43724cce9e24,2020-01-25 22:09:21,8.535955,47.37799,,18.0,,,,
20200125_221001.geojson,bird,bird_90c6dcbd-7882-4304-bf31-1bbe703db19d,2020-01-25 22:09:21,8.52764666666667,47.38419,,89.0,,,,
20200125_221001.geojson,bird,bird_34a0fecb-37b1-4d79-90f4-37ab1f581f8f,2020-01-25 22:09:21,8.535815,47.377915,,71.0,,,,
20200125_221001.geojson,bird,bird_7807ad88-a77f-4929-bd53-8259fe636beb,2020-01-25 22:09:21,8.53582833333333,47.3779683333333,,72.0,,,,
20200125_221001.geojson,bird,bird_566566fd-4d16-49f9-a617-399bde114634,2020-01-25 22:09:21,8.52840833333333,47.38424,,96.0,,,,
20200125_221001.geojson,bird,bird_4d8444c8-5e5f-4f3e-8ea8-26d58fc91b21,2020-01-25 22:09:21,8.53416666666667,47.3767883333333,,20.0,,,,
20200125_221001.geojson,bird,bird_2e53ed9a-591d-4216-919e-b97fbf7e297e,2020-01-25 22:09:21,8.52854166666667,47.38409,,69.0,,,,
20200125_221001.geojson,bird,bird_7f130ebd-2212-4dcb-bd6e-65803a159d32,2020-01-25 22:09:21,8.53562333333333,47.3782233333333,,96.0,,,,
20200125_221001.geojson,bird,bird_7df062a4-2b73-4b22-93dc-c1cf6d218bc7,2020-01-25 22:09:21,8.52865333333333,47.3840783333333,,96.0,,,,
20200125_221001.geojson,bird,bird_52bc92fb-8c3c-4eeb-b8b2-1bb71a0acdc8,2020-01-25 22:09:21,8.528675,47.3840633333333,,61.0,,,,
20200125_221001.geojson,bird,bird_80bee71b-d47a-4140-a5a0-7d657928c001,2020-01-25 22:09:21,8.53289333333333,47.3836133333333,,78.0,,,,
20200125_221001.geojson,bird,bird_0239705e-509f-42f5-927f-cf52f4a73d6f,2020-01-25 22:09:21,8.524215,47.3790466666667,,69.0,,,,
20200125_221001.geojson,bird,bird_d03e1d7b-d7dd-42ad-b39d-6a3d896124aa,2020-01-25 22:09:21,8.53290666666667,47.37656,,37.0,,,,
20200125_221001.geojson,bird,bird_c6e5b62c-5376-4a36-982c-8e6d1617826d,2020-01-25 22:09:21,8.52630833333333,47.377175,,79.0,,,,
20200125_221001.geojson,bird,bird_89ab5537-e741-4da9-a870-cfc15eeaf70c,2020-01-25 22:09:21,8.5266,47.37703,,71.0,,,,
20200125_221001.geojson,bird,bird_9bfcf52e-be77-417d-853f-ee8ad1a33618,2020-01-25 22:09:21,8.52631833333333,47.3772133333333,,79.0,,,,
20200125_221001.geojson,bird,bird_8640a3bc-0bd1-49ea-9329-5f41a1aab2aa,2020-01-25 22:09:21,8.524485,47.3799366666667,,42.0,,,,
20200125_221001.geojson,bird,bird_435000e1-2f0d-43c2-8c18-b4e717d400d3,2020-01-25 22:09:21,8.52459,47.3805116666667,,69.0,,,,
20200125_221001.geojson,bird,bird_5f25b362-9d29-462b-b1e4-3a9649535e8f,2020-01-25 22:09:21,8.52642,47.3772933333333,,100.0,,,,
20200125_221001.geojson,bird,bird_d5e97097-b935-4dc1-a370-5771403c1e4f,2020-01-25 22:09:21,8.52663,47.3771816666667,,99.0,,,,
20200125_221001.geojson,bird,bird_9d6fcd43-81cc-451a-9155-37577404b9c7,2020-01-25 22:09:21,8.52667,47.3772283333333,,100.0,,,,
20200125_221001.geojson,bird,bird_9f50f297-6e1f-4aca-b047-2bf72e42ab06,2020-01-25 22:09:21,8.52483333333333,47.3794066666667,,28.0,,,,
20200125_221001.geojson,bird,bird_b96084bd-c8c0-4157-8603-c7f2cab1c8a8,2020-01-25 22:09:21,8.525185,47.3806983333333,,88.0,,,,
20200125_221001.geojson,bird,bird_10c35b68-16a3-4c7b-9877-3548ee2de83c,2020-01-25 22:09:21,8.53421166666667,47.378525,,91.0,,,,
20200125_221001.geojson,bird,bird_aac25873-38d1-42e4-a3c6-56dcc66664d7,2020-01-25 22:09:21,8.53425,47.378605,,92.0,,,,
20200125_221001.geojson,bird,bird_698bc063-9e2a-4b4c-81c1-2e1b35f7c7d2,2020-01-25 22:09:21,8.53416333333333,47.378605,,89.0,,,,
20200125_221001.geojson,bird,bird_bc23df06-a434-4b92-98f0-2a5982d5e4ad,2020-01-25 22:09:21,8.52891666666667,47.37696,,64.0,,,,
20200125_221001.geojson,bird,bird_a7a4561d-529f-4315-9984-baba903e8f15,2020-01-25 22:09:21,8.52551333333333,47.3806766666667,,17.0,,,,
20200125_221001.geojson,bird,bird_d7a04373-b5b0-4c5b-bfba-cdfec251b822,2020-01-25 22:09:21,8.52948833333333,47.3828083333333,,80.0,,,,
20200125_221001.geojson,bird,bird_d13ec4f5-b81a-433a-b512-475e248e7ee5,2020-01-25 22:09:21,8.531955,47.382485,,53.0,,,,
20200125_221001.geojson,bird,bird_32aa5ff9-68f5-4a57-a1ad-45b69f193e1e,2020-01-25 22:09:21,8.52952166666667,47.3827583333333,,79.0,,,,
20200125_221001.geojson,bird,bird_ff9ac86b-f06f-4a9b-86a5-45a49727b2a5,2020-01-25 22:09:21,8.526065,47.3801733333333,,74.0,,,,
20200125_221001.geojson,bird,bird_ccc31565-9a9e-46d8-ae6b-56a5f1292d7e,2020-01-25 22:09:21,8.529635,47.3826133333333,,97.0,,,,
20200125_221001.geojson,bird,bird_18e4461f-5049-4d06-a84e-d8cb5cb5112e,2020-01-25 22:09:21,8.52955833333333,47.3825983333333,,96.0,,,,
20200125_221001.geojson,bird,bird_39f36948-c11a-494d-a904-aee8577065df,2020-01-25 22:09:21,8.53289833333333,47.37886,,96.0,,,,
20200125_221001.geojson,bird,bird_88773f9e-2b27-43c5-a4fe-4438d30236fe,2020-01-25 22:09:21,8.52682666666667,47.3792916666667,,22.0,,,,
20200125_221001.geojson,bird,bird_79a7886a-34ef-456e-a842-e950114f64c7,2020-01-25 22:09:21,8.532835,47.3789333333333,,36.0,,,,
20200125_221001.geojson,bird,bird_942e1b2b-f26e-418f-b4cc-4f284a911d62,2020-01-25 22:09:21,8.529745,47.3778916666667,,89.0,,,,
20200125_221001.geojson,bird,bird_de555b8a-1d86-4db7-bb18-b364d5c2126c,2020-01-25 22:09:21,8.52911333333333,47.3819433333333,,98.0,,,,
20200125_221001.geojson,bird,bird_244e95ff-3b82-42c7-9985-0303dc95ef8e,2020-01-25 22:09:21,8.52912,47.3819316666667,,99.0,,,,
20200125_221001.geojson,bird,bird_46e35f27-ef48-4a97-877d-21c7537c257f,2020-01-25 22:09:21,8.52911833333333,47.3819266666667,,100.0,,,,
20200125_221001.geojson,bird,bird_e5ed9bfd-bc07-4a13-9375-3018def45338,2020-01-25 22:09:21,8.5291,47.3819116666667,,99.0,,,,
20200125_221001.geojson,bird,bird_4b40e12c-0660-4205-97e8-49861453c206,2020-01-25 22:09:21,8.5292,47.3818666666667,,100.0,,,,
20200125_221001.geojson,bird,bird_c065f575-66e8-43ad-b372-f08f34e6f6da,2020-01-25 22:09:21,8.529085,47.3818016666667,,100.0,,,,
20200125_221001.geojson,bird,bird_305e3490-93ee-4523-a517-5f79c1a95fb6,2020-01-25 22:09:21,8.52859,47.378365,,45.0,,,,
20200125_221001.geojson,bird,bird_030cc2e4-e3bc-4806-acaa-6b1981899a00,2020-01-25 22:09:21,8.52795166666667,47.3787116666667,,81.0,,,,
20200125_221001.geojson,bird,bird_cb01d451-0415-4cf1-b408-180a27f7492f,2020-01-25 22:09:21,8.52858833333333,47.3783866666667,,88.0,,,,
20200125_221001.geojson,bird,bird_cd8b9f0f-0834-4d96-bc7c-145a55650b2f,2020-01-25 22:09:21,8.52925833333333,47.3817366666667,,99.0,,,,
20200125_221001.geojson,bird,bird_1228a126-e793-404d-9feb-dbd3b4956949,2020-01-25 22:09:21,8.52757666666667,47.3797116666667,,99.0,,,,
20200125_221001.geojson,bird,bird_e27453fb-c13d-456b-9169-4e1c7ee3985e,2020-01-25 22:09:21,8.52768833333333,47.3798033333333,,99.0,,,,
20200125_221001.geojson,bird,bird_ea1efaae-e6f1-4689-9e90-a76f3409461a,2020-01-25 22:09:21,8.527935,47.3803016666667,,100.0,,,,
20200125_221001.geojson,bird,bird_2c9e4b80-df24-42d1-93d5-6cf010cddd09,2020-01-25 22:09:21,8.527935,47.380135,,61.0,,,,
20200125_221001.geojson,bird,bird_5da24033-e230-4e7b-8a95-5f8f7f9fbfde,2020-01-25 22:09:21,8.528165,47.3803516666667,,99.0,,,,
20200125_221001.geojson,bird,bird_4dc125c5-9403-4d6a-a5ea-6d30034e7b1b,2020-01-25 22:09:21,8.528215,47.3803633333333,,96.0,,,,
20200125_221001.geojson,bird,bird_36db5bc8-0eca-4ace-8d75-38bb628eadfc,2020-01-25 22:09:21,8.52823833333333,47.38015,,78.0,,,,
20200125_221001.geojson,bird,bird_305a9822-225d-4ac6-a312-b05abc0044f2,2020-01-25 22:09:21,8.528235,47.3800583333333,,100.0,,,,
20200125_221001.geojson,bird,bird_b56a59f9-2e20-4176-b63e-f1774931662e,2020-01-25 22:09:21,8.531615,47.3799816666667,,63.0,,,,
20200125_221001.geojson,bird,bird_3eb5b59b-c4f4-41b4-9359-f6e59afee2d4,2020-01-25 22:09:21,8.53092333333333,47.3792533333333,,98.0,,,,
20200125_221001.geojson,bird,bird_2f3c3131-9664-478b-87ab-1ff3ae875f8d,2020-01-25 22:09:21,8.52869333333333,47.3799816666667,,92.0,,,,
20200125_221001.geojson,bird,bird_aa0bf15a-a007-4c01-9f87-5249a1e707e2,2020-01-25 22:09:21,8.52899666666667,47.3797916666667,,69.0,,,,
20200125_221001.geojson,flash,flash_34509,2020-01-25 22:09:20,8.591915,47.405383,,74.0,,,19.0,
20200125_221001.geojson,flash,flash_37767,2020-01-25 22:09:20,8.592262,47.404823,,93.0,,,23.0,
20200125_221001.geojson,flash,flash_34482,2020-01-25 22:09:20,8.592207,47.40481,,96.0,,,24.0,
20200125_221001.geojson,flash,flash_38188,2020-01-25 22:09:20,8.592735,47.400882,,87.0,,,22.0,
20200125_221001.geojson,flash,flash_35615,2020-01-25 22:09:20,8.592722,47.400887,,73.0,,,18.0,
20200125_221001.geojson,flash,flash_34956,2020-01-25 22:09:20,8.591722,47.403013,,53.0,,,13.0,
20200125_221001.geojson,flash,flash_38153,2020-01-25 22:09:20,8.590462,47.40171,,69.0,,,17.0,
20200125_221001.geojson,flash,flash_34850,2020-01-25 22:09:20,8.586612,47.405355,,77.0,,,19.0,
20200125_221001.geojson,flash,flash_38141,2020-01-25 22:09:20,8.584152,47.40139,,52.0,,,13.0,
20200125_221001.geojson,flash,flash_34609,2020-01-25 22:09:20,8.552293,47.402852,,75.0,,,19.0,
20200125_221001.geojson,flash,flash_35358,2020-01-25 22:09:20,8.580368,47.408633,,58.0,,,15.0,
20200125_221001.geojson,flash,flash_34397,2020-01-25 22:09:20,8.55419,47.427567,,60.0,,,15.0,
20200125_221001.geojson,flash,flash_38005,2020-01-25 22:09:20,8.566977,47.402845,,51.0,,,13.0,
20200125_221001.geojson,flash,flash_35365,2020-01-25 22:09:20,8.558758,47.403033,,97.0,,,24.0,
20200125_221001.geojson,flash,flash_37876,2020-01-25 22:09:20,8.577947,47.408083,,71.0,,,18.0,
20200125_221001.geojson,flash,flash_38124,2020-01-25 22:09:20,8.551073,47.407,,92.0,,,23.0,
20200125_221001.geojson,flash,flash_34648,2020-01-25 22:09:20,8.560432,47.404145,,100.0,,,25.0,
20200125_221001.geojson,flash,flash_35684,2020-01-25 22:09:20,8.565002,47.426753,,80.0,,,20.0,
20200125_221001.geojson,flash,flash_34516,2020-01-25 22:09:20,8.556673,47.405745,,74.0,,,19.0,
20200125_221001.geojson,flash,flash_38123,2020-01-25 22:09:20,8.554533,47.407415,,92.0,,,23.0,
20200125_221001.geojson,flash,flash_35348,2020-01-25 22:09:20,8.555027,47.42375,,76.0,,,19.0,
20200125_221001.geojson,flash,flash_34333,2020-01-25 22:09:20,8.571968,47.41082,,89.0,,,22.0,
20200125_221001.geojson,flash,flash_34713,2020-01-25 22:09:20,8.559978,47.421277,,99.0,,,25.0,
20200125_221001.geojson,flash,flash_38057,2020-01-25 22:09:20,8.567595,47.411275,,60.0,,,17.0,
20200125_221001.geojson,flash,flash_37770,2020-01-25 22:09:20,8.56334,47.411147,,90.0,,,23.0,
20200125_221001.geojson,flash,flash_36429,2020-01-25 22:09:20,8.564243,47.412198,,86.0,,,22.0,
20200125_221001.geojson,flash,flash_35408,2020-01-25 22:09:20,8.570918,47.335923,,76.0,,,19.0,
20200125_221001.geojson,flash,flash_34552,2020-01-25 22:09:20,8.526088,47.336505,,80.0,,,20.0,
20200125_221001.geojson,flash,flash_36398,2020-01-25 22:09:20,8.535967,47.330432,,53.0,,,13.0,
20200125_221001.geojson,flash,flash_34341,2020-01-25 22:09:20,8.5328,47.338627,,59.0,,,15.0,
20200125_221001.geojson,flash,flash_35720,2020-01-25 22:09:20,8.539623,47.3366,,60.0,,,15.0,
20200125_221001.geojson,flash,flash_38088,2020-01-25 22:09:20,8.529988,47.334143,,54.0,,,14.0,
20200125_221001.geojson,flash,flash_37699,2020-01-25 22:09:20,8.539132,47.334515,,72.0,,,18.0,
20200125_221001.geojson,flash,flash_38121,2020-01-25 22:09:20,8.533762,47.334532,,60.0,,,15.0,
20200125_221001.geojson,flash,flash_35994,2020-01-25 22:09:20,8.53704,47.366092,,68.0,,,17.0,
20200125_221001.geojson,flash,flash_37694,2020-01-25 22:09:20,8.527693,47.371343,,60.0,,,17.0,
20200125_221001.geojson,flash,flash_37854,2020-01-25 22:09:20,8.528543,47.375347,,60.0,,,15.0,
20200125_221001.geojson,flash,flash_36410,2020-01-25 22:09:20,8.529653,47.376348,,80.0,,,20.0,
20200125_221001.geojson,flash,flash_35153,2020-01-25 22:09:20,8.528198,47.371218,,88.0,,,22.0,
20200125_221001.geojson,flash,flash_34748,2020-01-25 22:09:20,8.529015,47.370672,,74.0,,,19.0,
20200125_221001.geojson,flash,flash_34502,2020-01-25 22:09:20,8.537437,47.367258,,74.0,,,19.0,
20200125_221001.geojson,flash,flash_37873,2020-01-25 22:09:20,8.54507,47.372348,,59.0,,,15.0,
20200125_221001.geojson,flash,flash_37717,2020-01-25 22:09:20,8.544513,47.373383,,60.0,,,15.0,
20200125_221001.geojson,flash,flash_35221,2020-01-25 22:09:20,8.543965,47.371227,,77.0,,,19.0,
20200125_221001.geojson,flash,flash_34830,2020-01-25 22:09:20,8.543793,47.374265,,74.0,,,19.0,
20200125_221001.geojson,flash,flash_37680,2020-01-25 22:09:20,8.542048,47.369325,,95.0,,,24.0,
20200125_221001.geojson,flash,flash_37818,2020-01-25 22:09:20,8.542762,47.374457,,97.0,,,24.0,
20200125_221001.geojson,flash,flash_38033,2020-01-25 22:09:20,8.533502,47.369243,,99.0,,,25.0,
20200125_221001.geojson,flash,flash_37965,2020-01-25 22:09:20,8.539557,47.376478,,80.0,,,20.0,
20200125_221001.geojson,flash,flash_37800,2020-01-25 22:09:20,8.536692,47.376613,,99.0,,,25.0,
20200125_221001.geojson,flash,flash_38110,2020-01-25 22:09:20,8.534032,47.369555,,55.0,,,14.0,
20200125_221001.geojson,flash,flash_38029,2020-01-25 22:09:20,8.539892,47.375852,,91.0,,,23.0,
20200125_221001.geojson,flash,flash_34860,2020-01-25 22:09:20,8.533302,47.370198,,57.0,,,14.0,
20200125_221001.geojson,flash,flash_38078,2020-01-25 22:09:20,8.535717,47.369208,,66.0,,,17.0,
20200125_221001.geojson,flash,flash_34449,2020-01-25 22:09:20,8.539858,47.375378,,84.0,,,21.0,
20200125_221001.geojson,flash,flash_34500,2020-01-25 22:09:20,8.541763,47.3727,,74.0,,,19.0,
20200125_221001.geojson,flash,flash_35091,2020-01-25 22:09:20,8.538957,47.375428,,96.0,,,24.0,
20200125_221001.geojson,flash,flash_38046,2020-01-25 22:09:20,8.53418,47.374882,,76.0,,,19.0,
20200125_221001.geojson,flash,flash_35464,2020-01-25 22:09:20,8.533063,47.373422,,57.0,,,14.0,
20200125_221001.geojson,flash,flash_34885,2020-01-25 22:09:20,8.534183,47.3745,,60.0,,,15.0,
20200125_221001.geojson,flash,flash_35220,2020-01-25 22:09:20,8.533253,47.373223,,91.0,,,23.0,
20200125_221001.geojson,flash,flash_35566,2020-01-25 22:09:20,8.536085,47.372972,,59.0,,,15.0,
20200125_221001.geojson,flash,flash_38184,2020-01-25 22:09:20,8.536988,47.372907,,51.0,,,13.0,
20200125_221001.geojson,flash,flash_34687,2020-01-25 22:09:20,8.525803,47.37037,,90.0,,,23.0,
20200125_221001.geojson,flash,flash_37855,2020-01-25 22:09:20,8.52183,47.374443,,51.0,,,13.0,
20200125_221001.geojson,flash,flash_34905,2020-01-25 22:09:20,8.514138,47.37647,,91.0,,,23.0,
20200125_221001.geojson,flash,flash_34634,2020-01-25 22:09:20,8.510478,47.356027,,58.0,,,15.0,
20200125_221001.geojson,flash,flash_36503,2020-01-25 22:09:20,8.524785,47.366837,,59.0,,,15.0,
20200125_221001.geojson,flash,flash_34816,2020-01-25 22:09:20,8.496947,47.368285,,54.0,,,14.0,
20200125_221001.geojson,flash,flash_34472,2020-01-25 22:09:20,8.518883,47.3722,,51.0,,,13.0,
20200125_221001.geojson,flash,flash_38161,2020-01-25 22:09:20,8.520055,47.366033,,69.0,,,17.0,
20200125_221001.geojson,flash,flash_35300,2020-01-25 22:09:20,8.500573,47.363803,,60.0,,,15.0,
20200125_221001.geojson,flash,flash_34796,2020-01-25 22:09:20,8.51844,47.368912,,66.0,,,17.0,
20200125_221001.geojson,flash,flash_34514,2020-01-25 22:09:20,8.503598,47.362057,,52.0,,,13.0,
20200125_221001.geojson,flash,flash_37952,2020-01-25 22:09:20,8.502052,47.367433,,69.0,,,17.0,
20200125_221001.geojson,flash,flash_38040,2020-01-25 22:09:20,8.512797,47.370525,,53.0,,,13.0,
20200125_221001.geojson,flash,flash_34806,2020-01-25 22:09:20,8.511322,47.370143,,75.0,,,19.0,
20200125_221001.geojson,flash,flash_35161,2020-01-25 22:09:20,8.514138,47.363813,,60.0,,,15.0,
20200125_221001.geojson,flash,flash_37713,2020-01-25 22:09:20,8.508062,47.36333,,76.0,,,19.0,
20200125_221001.geojson,flash,flash_36021,2020-01-25 22:09:20,8.51227,47.368755,,58.0,,,15.0,
20200125_221001.geojson,flash,flash_35533,2020-01-25 22:09:20,8.514092,47.365702,,50.0,,,13.0,
20200125_221001.geojson,flash,flash_38028,2020-01-25 22:09:20,8.512678,47.365433,,74.0,,,19.0,
20200125_221001.geojson,flash,flash_34620,2020-01-25 22:09:20,8.510727,47.36729,,51.0,,,13.0,
20200125_221001.geojson,flash,flash_37703,2020-01-25 22:09:20,8.511027,47.357012,,77.0,,,19.0,
20200125_221001.geojson,flash,flash_34622,2020-01-25 22:09:20,8.527072,47.366232,,98.0,,,25.0,
20200125_221001.geojson,flash,flash_34993,2020-01-25 22:09:20,8.52551,47.36581,,94.0,,,24.0,
20200125_221001.geojson,flash,flash_35374,2020-01-25 22:09:20,8.512387,47.35715,,50.0,,,13.0,
20200125_221001.geojson,flash,flash_34249,2020-01-25 22:09:20,8.525953,47.365192,,94.0,,,24.0,
20200125_221001.geojson,flash,flash_37793,2020-01-25 22:09:20,8.525217,47.36508,,99.0,,,25.0,
20200125_221001.geojson,flash,flash_34274,2020-01-25 22:09:20,8.525077,47.365028,,90.0,,,23.0,
20200125_221001.geojson,flash,flash_36002,2020-01-25 22:09:20,8.52557,47.3651,,99.0,,,25.0,
20200125_221001.geojson,flash,flash_35740,2020-01-25 22:09:20,8.525525,47.365093,,99.0,,,25.0,
20200125_221001.geojson,flash,flash_34781,2020-01-25 22:09:20,8.525158,47.365025,,96.0,,,24.0,
20200125_221001.geojson,flash,flash_38162,2020-01-25 22:09:20,8.525167,47.365025,,97.0,,,24.0,
20200125_221001.geojson,flash,flash_34755,2020-01-25 22:09:20,8.524602,47.364915,,91.0,,,23.0,
20200125_221001.geojson,flash,flash_35483,2020-01-25 22:09:20,8.525213,47.365003,,95.0,,,24.0,
20200125_221001.geojson,flash,flash_35263,2020-01-25 22:09:20,8.52594,47.365105,,97.0,,,24.0,
20200125_221001.geojson,flash,flash_36419,2020-01-25 22:09:20,8.52594,47.365105,,98.0,,,25.0,
20200125_221001.geojson,flash,flash_37930,2020-01-25 22:09:20,8.525883,47.365093,,93.0,,,23.0,
20200125_221001.geojson,flash,flash_37897,2020-01-25 22:09:20,8.525882,47.365072,,92.0,,,23.0,
20200125_221001.geojson,flash,flash_34667,2020-01-25 22:09:20,8.524508,47.364845,,89.0,,,22.0,
20200125_221001.geojson,flash,flash_37931,2020-01-25 22:09:20,8.525582,47.365002,,100.0,,,25.0,
20200125_221001.geojson,flash,flash_37987,2020-01-25 22:09:20,8.532377,47.364953,,80.0,,,23.0,
20200125_221001.geojson,flash,flash_34668,2020-01-25 22:09:20,8.525785,47.364928,,53.0,,,13.0,
20200125_221001.geojson,flash,flash_34316,2020-01-25 22:09:20,8.525928,47.364825,,93.0,,,23.0,
20200125_221001.geojson,flash,flash_36019,2020-01-25 22:09:20,8.535423,47.343408,,68.0,,,17.0,
20200125_221001.geojson,flash,flash_37929,2020-01-25 22:09:20,8.526927,47.364338,,96.0,,,24.0,
20200125_221001.geojson,flash,flash_36386,2020-01-25 22:09:20,8.531795,47.364048,,96.0,,,24.0,
20200125_221001.geojson,flash,flash_37740,2020-01-25 22:09:20,8.53422,47.363572,,95.0,,,24.0,
20200125_221001.geojson,flash,flash_34290,2020-01-25 22:09:20,8.526897,47.363647,,96.0,,,24.0,
20200125_221001.geojson,flash,flash_38185,2020-01-25 22:09:20,8.525783,47.362705,,57.0,,,14.0,
20200125_221001.geojson,flash,flash_35669,2020-01-25 22:09:20,8.518437,47.35832,,55.0,,,14.0,
20200125_221001.geojson,flash,flash_36379,2020-01-25 22:09:20,8.526552,47.362125,,66.0,,,17.0,
20200125_221001.geojson,flash,flash_34750,2020-01-25 22:09:20,8.534235,47.34603,,67.0,,,17.0,
20200125_221001.geojson,flash,flash_35663,2020-01-25 22:09:20,8.5279,47.346,,56.0,,,14.0,
20200125_221001.geojson,flash,flash_34367,2020-01-25 22:09:20,8.532897,47.360823,,55.0,,,14.0,
20200125_221001.geojson,flash,flash_36414,2020-01-25 22:09:20,8.53314,47.3479,,56.0,,,14.0,
20200125_221001.geojson,flash,flash_36394,2020-01-25 22:09:20,8.52211,47.357735,,59.0,,,15.0,
20200125_221001.geojson,flash,flash_38154,2020-01-25 22:09:20,8.5282,47.347893,,90.0,,,23.0,
20200125_221001.geojson,flash,flash_34241,2020-01-25 22:09:20,8.523622,47.358177,,85.0,,,21.0,
20200125_221001.geojson,flash,flash_38085,2020-01-25 22:09:20,8.533973,47.349313,,80.0,,,20.0,
20200125_221001.geojson,flash,flash_34567,2020-01-25 22:09:20,8.534367,47.357927,,79.0,,,20.0,
20200125_221001.geojson,flash,flash_37773,2020-01-25 22:09:20,8.529473,47.349582,,75.0,,,19.0,
20200125_221001.geojson,flash,flash_37795,2020-01-25 22:09:20,8.526907,47.357367,,88.0,,,22.0,
20200125_221001.geojson,flash,flash_34679,2020-01-25 22:09:20,8.532122,47.351402,,80.0,,,20.0,
20200125_221001.geojson,flash,flash_34289,2020-01-25 22:09:20,8.525345,47.352342,,80.0,,,21.0,
20200125_221001.geojson,flash,flash_34447,2020-01-25 22:09:20,8.526027,47.351715,,70.0,,,18.0,
20200125_221001.geojson,flash,flash_35683,2020-01-25 22:09:20,8.525293,47.352532,,71.0,,,18.0,
20200125_221001.geojson,flash,flash_34318,2020-01-25 22:09:20,8.526907,47.355167,,79.0,,,20.0,
20200125_221001.geojson,flash,flash_36506,2020-01-25 22:09:20,8.530332,47.352067,,92.0,,,23.0,
20200125_221001.geojson,flash,flash_37778,2020-01-25 22:09:20,8.530013,47.35524,,60.0,,,16.0,
20200125_221001.geojson,flash,flash_38171,2020-01-25 22:09:20,8.531023,47.35455,,86.0,,,22.0,
20200125_221001.geojson,flash,flash_34610,2020-01-25 22:09:20,8.529435,47.354333,,69.0,,,17.0,
20200125_221001.geojson,flash,flash_40412,2020-01-25 22:09:20,8.53548,47.400808,,80.0,,,20.0,
20200125_221001.geojson,flash,flash_34957,2020-01-25 22:09:20,8.513573,47.394678,,53.0,,,13.0,
20200125_221001.geojson,flash,flash_37869,2020-01-25 22:09:20,8.518417,47.395478,,60.0,,,15.0,
20200125_221001.geojson,flash,flash_35629,2020-01-25 22:09:20,8.516222,47.39528,,78.0,,,20.0,
20200125_221001.geojson,flash,flash_35518,2020-01-25 22:09:20,8.516247,47.395302,,60.0,,,15.0,
20200125_221001.geojson,flash,flash_37962,2020-01-25 22:09:20,8.538238,47.42705,,93.0,,,23.0,
20200125_221001.geojson,flash,flash_37908,2020-01-25 22:09:20,8.520542,47.396453,,59.0,,,15.0,
20200125_221001.geojson,flash,flash_34512,2020-01-25 22:09:20,8.532832,47.40132,,87.0,,,22.0,
20200125_221001.geojson,flash,flash_38058,2020-01-25 22:09:20,8.518675,47.396515,,56.0,,,14.0,
20200125_221001.geojson,flash,flash_37918,2020-01-25 22:09:20,8.50864,47.39644,,76.0,,,19.0,
20200125_221001.geojson,flash,flash_34855,2020-01-25 22:09:20,8.512028,47.396477,,60.0,,,15.0,
20200125_221001.geojson,flash,flash_34554,2020-01-25 22:09:20,8.534903,47.404072,,52.0,,,13.0,
20200125_221001.geojson,flash,flash_34384,2020-01-25 22:09:20,8.535257,47.424057,,77.0,,,20.0,
20200125_221001.geojson,flash,flash_34304,2020-01-25 22:09:20,8.529872,47.404415,,52.0,,,13.0,
20200125_221001.geojson,flash,flash_34900,2020-01-25 22:09:20,8.532595,47.40694,,53.0,,,13.0,
20200125_221001.geojson,flash,flash_34869,2020-01-25 22:09:20,8.528592,47.410725,,80.0,,,22.0,
20200125_221001.geojson,flash,flash_38013,2020-01-25 22:09:20,8.530127,47.41636,,91.0,,,23.0,
20200125_221001.geojson,flash,flash_38026,2020-01-25 22:09:20,8.528587,47.411948,,91.0,,,23.0,
20200125_221001.geojson,flash,flash_37866,2020-01-25 22:09:20,8.526808,47.411682,,55.0,,,14.0,
20200125_221001.geojson,flash,flash_38047,2020-01-25 22:09:20,8.522923,47.410278,,76.0,,,19.0,
20200125_221001.geojson,flash,flash_34612,2020-01-25 22:09:20,8.513357,47.424182,,57.0,,,15.0,
20200125_221001.geojson,flash,flash_34708,2020-01-25 22:09:20,8.514798,47.424002,,60.0,,,18.0,
20200125_221001.geojson,flash,flash_35713,2020-01-25 22:09:20,8.519872,47.413383,,65.0,,,16.0,
20200125_221001.geojson,flash,flash_35183,2020-01-25 22:09:20,8.519475,47.413855,,52.0,,,13.0,
20200125_221001.geojson,flash,flash_36007,2020-01-25 22:09:20,8.514917,47.413657,,54.0,,,14.0,
20200125_221001.geojson,flash,flash_35585,2020-01-25 22:09:20,8.508682,47.417207,,66.0,,,17.0,
20200125_221001.geojson,flash,flash_34389,2020-01-25 22:09:20,8.541055,47.368087,,73.0,,,18.0,
20200125_221001.geojson,flash,flash_35079,2020-01-25 22:09:20,8.543272,47.369332,,79.0,,,20.0,
20200125_221001.geojson,flash,flash_34350,2020-01-25 22:09:20,8.54096,47.367543,,77.0,,,19.0,
20200125_221001.geojson,flash,flash_38089,2020-01-25 22:09:20,8.543933,47.368363,,99.0,,,25.0,
20200125_221001.geojson,flash,flash_34561,2020-01-25 22:09:20,8.54398,47.368372,,98.0,,,25.0,
20200125_221001.geojson,flash,flash_34627,2020-01-25 22:09:20,8.544005,47.36838,,60.0,,,16.0,
20200125_221001.geojson,flash,flash_35710,2020-01-25 22:09:20,8.55643,47.372547,,80.0,,,23.0,
20200125_221001.geojson,flash,flash_38150,2020-01-25 22:09:20,8.549597,47.3704,,56.0,,,14.0,
20200125_221001.geojson,flash,flash_35696,2020-01-25 22:09:20,8.544945,47.367865,,80.0,,,20.0,
20200125_221001.geojson,flash,flash_34671,2020-01-25 22:09:20,8.561525,47.372522,,60.0,,,18.0,
20200125_221001.geojson,flash,flash_37982,2020-01-25 22:09:20,8.545905,47.368423,,51.0,,,13.0,
20200125_221001.geojson,flash,flash_34330,2020-01-25 22:09:20,8.54646,47.368328,,99.0,,,25.0,
20200125_221001.geojson,flash,flash_35041,2020-01-25 22:09:20,8.546578,47.368255,,100.0,,,25.0,
20200125_221001.geojson,flash,flash_35695,2020-01-25 22:09:20,8.545257,47.367412,,79.0,,,20.0,
20200125_221001.geojson,flash,flash_35634,2020-01-25 22:09:20,8.54594,47.367557,,85.0,,,21.0,
20200125_221001.geojson,flash,flash_34706,2020-01-25 22:09:20,8.54632,47.367075,,98.0,,,25.0,
20200125_221001.geojson,flash,flash_35142,2020-01-25 22:09:20,8.555695,47.370715,,72.0,,,18.0,
20200125_221001.geojson,flash,flash_34602,2020-01-25 22:09:20,8.546478,47.36705,,99.0,,,25.0,
20200125_221001.geojson,flash,flash_35234,2020-01-25 22:09:20,8.558395,47.370605,,60.0,,,15.0,
20200125_221001.geojson,flash,flash_34547,2020-01-25 22:09:20,8.546928,47.365905,,54.0,,,14.0,
20200125_221001.geojson,flash,flash_36031,2020-01-25 22:09:20,8.54862,47.3669,,60.0,,,19.0,
20200125_221001.geojson,flash,flash_37939,2020-01-25 22:09:20,8.549123,47.367062,,58.0,,,15.0,
20200125_221001.geojson,flash,flash_35336,2020-01-25 22:09:20,8.568673,47.369247,,60.0,,,17.0,
20200125_221001.geojson,flash,flash_37736,2020-01-25 22:09:20,8.549838,47.366153,,52.0,,,13.0,
20200125_221001.geojson,flash,flash_34248,2020-01-25 22:09:20,8.54659,47.363795,,52.0,,,13.0,
20200125_221001.geojson,flash,flash_37904,2020-01-25 22:09:20,8.567685,47.368197,,60.0,,,15.0,
20200125_221001.geojson,flash,flash_36403,2020-01-25 22:09:20,8.551613,47.36666,,53.0,,,13.0,
20200125_221001.geojson,flash,flash_34918,2020-01-25 22:09:20,8.5475,47.362983,,89.0,,,22.0,
20200125_221001.geojson,flash,flash_34846,2020-01-25 22:09:20,8.569902,47.345597,,78.0,,,20.0,
20200125_221001.geojson,flash,flash_37758,2020-01-25 22:09:20,8.565938,47.367247,,51.0,,,13.0,
20200125_221001.geojson,flash,flash_37785,2020-01-25 22:09:20,8.555625,47.365477,,60.0,,,16.0,
20200125_221001.geojson,flash,flash_37700,2020-01-25 22:09:20,8.54909,47.361235,,80.0,,,20.0,
20200125_221001.geojson,flash,flash_34336,2020-01-25 22:09:20,8.566858,47.365538,,68.0,,,17.0,
20200125_221001.geojson,flash,flash_34967,2020-01-25 22:09:20,8.560623,47.365838,,68.0,,,17.0,
20200125_221001.geojson,flash,flash_34793,2020-01-25 22:09:20,8.57321,47.34981,,59.0,,,15.0,
20200125_221001.geojson,flash,flash_37843,2020-01-25 22:09:20,8.550697,47.361292,,51.0,,,13.0,
20200125_221001.geojson,flash,flash_34315,2020-01-25 22:09:20,8.56658,47.36418,,59.0,,,15.0,
20200125_221001.geojson,flash,flash_38087,2020-01-25 22:09:20,8.551112,47.36082,,52.0,,,13.0,
20200125_221001.geojson,flash,flash_38070,2020-01-25 22:09:20,8.565948,47.364285,,53.0,,,13.0,
20200125_221001.geojson,flash,flash_37727,2020-01-25 22:09:20,8.552058,47.359545,,63.0,,,16.0,
20200125_221001.geojson,flash,flash_35699,2020-01-25 22:09:20,8.55255,47.359873,,95.0,,,24.0,
20200125_221001.geojson,flash,flash_35278,2020-01-25 22:09:20,8.56903,47.350753,,66.0,,,17.0,
20200125_221001.geojson,flash,flash_40413,2020-01-25 22:09:20,8.56712,47.362037,,60.0,,,15.0,
20200125_221001.geojson,flash,flash_34531,2020-01-25 22:09:20,8.570953,47.357035,,80.0,,,20.0,
20200125_221001.geojson,flash,flash_37865,2020-01-25 22:09:20,8.563348,47.361557,,80.0,,,20.0,
20200125_221001.geojson,flash,flash_34926,2020-01-25 22:09:20,8.558865,47.361177,,76.0,,,19.0,
20200125_221001.geojson,flash,flash_34966,2020-01-25 22:09:20,8.563467,47.361272,,67.0,,,17.0,
20200125_221001.geojson,flash,flash_37667,2020-01-25 22:09:20,8.567383,47.3596,,60.0,,,15.0,
20200125_221001.geojson,flash,flash_34615,2020-01-25 22:09:20,8.561672,47.353642,,59.0,,,15.0,
20200125_221001.geojson,flash,flash_34526,2020-01-25 22:09:20,8.555753,47.409728,,60.0,,,15.0,
20200125_221001.geojson,flash,flash_34765,2020-01-25 22:09:20,8.530812,47.414557,,97.0,,,24.0,
20200125_221001.geojson,flash,flash_38065,2020-01-25 22:09:20,8.533497,47.410225,,54.0,,,14.0,
20200125_221001.geojson,flash,flash_35017,2020-01-25 22:09:20,8.530815,47.41464,,78.0,,,20.0,
20200125_221001.geojson,flash,flash_38099,2020-01-25 22:09:20,8.534687,47.409687,,80.0,,,20.0,
20200125_221001.geojson,flash,flash_37693,2020-01-25 22:09:20,8.55181,47.4084,,57.0,,,14.0,
20200125_221001.geojson,flash,flash_36402,2020-01-25 22:09:20,8.5578,47.414668,,94.0,,,24.0,
20200125_221001.geojson,flash,flash_35315,2020-01-25 22:09:20,8.55048,47.42379,,51.0,,,13.0,
20200125_221001.geojson,flash,flash_35554,2020-01-25 22:09:20,8.550553,47.423762,,80.0,,,20.0,
20200125_221001.geojson,flash,flash_35650,2020-01-25 22:09:20,8.532167,47.416897,,70.0,,,18.0,
20200125_221001.geojson,flash,flash_37781,2020-01-25 22:09:20,8.5325,47.414382,,98.0,,,25.0,
20200125_221001.geojson,flash,flash_35855,2020-01-25 22:09:20,8.547878,47.407725,,99.0,,,25.0,
20200125_221001.geojson,flash,flash_38017,2020-01-25 22:09:20,8.55685,47.413767,,97.0,,,24.0,
20200125_221001.geojson,flash,flash_34681,2020-01-25 22:09:20,8.547818,47.40782,,100.0,,,25.0,
20200125_221001.geojson,flash,flash_34228,2020-01-25 22:09:20,8.532658,47.414867,,58.0,,,15.0,
20200125_221001.geojson,flash,flash_40379,2020-01-25 22:09:20,8.554528,47.420957,,52.0,,,13.0,
20200125_221001.geojson,flash,flash_34296,2020-01-25 22:09:20,8.556373,47.413777,,93.0,,,23.0,
20200125_221001.geojson,flash,flash_37926,2020-01-25 22:09:20,8.55632,47.414918,,71.0,,,18.0,
20200125_221001.geojson,flash,flash_35610,2020-01-25 22:09:20,8.538715,47.409688,,60.0,,,17.0,
20200125_221001.geojson,flash,flash_37934,2020-01-25 22:09:20,8.534207,47.417225,,94.0,,,24.0,
20200125_221001.geojson,flash,flash_34865,2020-01-25 22:09:20,8.552382,47.410908,,89.0,,,22.0,
20200125_221001.geojson,flash,flash_35738,2020-01-25 22:09:20,8.551137,47.410707,,69.0,,,17.0,
20200125_221001.geojson,flash,flash_35172,2020-01-25 22:09:20,8.535032,47.416607,,78.0,,,20.0,
20200125_221001.geojson,flash,flash_38152,2020-01-25 22:09:20,8.54348,47.40941,,67.0,,,17.0,
20200125_221001.geojson,flash,flash_34307,2020-01-25 22:09:20,8.54245,47.409583,,72.0,,,18.0,
20200125_221001.geojson,flash,flash_37737,2020-01-25 22:09:20,8.550727,47.410857,,99.0,,,25.0,
20200125_221001.geojson,flash,flash_34370,2020-01-25 22:09:20,8.55064,47.410832,,100.0,,,25.0,
20200125_221001.geojson,flash,flash_37715,2020-01-25 22:09:20,8.55066,47.410853,,94.0,,,24.0,
20200125_221001.geojson,flash,flash_37738,2020-01-25 22:09:20,8.550612,47.41084,,97.0,,,24.0,
20200125_221001.geojson,flash,flash_35623,2020-01-25 22:09:20,8.550537,47.410868,,99.0,,,25.0,
20200125_221001.geojson,flash,flash_40380,2020-01-25 22:09:20,8.553967,47.417647,,59.0,,,15.0,
20200125_221001.geojson,flash,flash_34839,2020-01-25 22:09:20,8.550383,47.410843,,56.0,,,14.0,
20200125_221001.geojson,flash,flash_34847,2020-01-25 22:09:20,8.541705,47.42195,,71.0,,,18.0,
20200125_221001.geojson,flash,flash_38061,2020-01-25 22:09:20,8.550452,47.41116,,91.0,,,23.0,
20200125_221001.geojson,flash,flash_35461,2020-01-25 22:09:20,8.537037,47.419098,,80.0,,,20.0,
20200125_221001.geojson,flash,flash_34555,2020-01-25 22:09:20,8.542348,47.410717,,75.0,,,19.0,
20200125_221001.geojson,flash,flash_35069,2020-01-25 22:09:20,8.536917,47.416993,,97.0,,,24.0,
20200125_221001.geojson,flash,flash_34962,2020-01-25 22:09:20,8.546372,47.421228,,51.0,,,13.0,
20200125_221001.geojson,flash,flash_35698,2020-01-25 22:09:20,8.540448,47.420205,,75.0,,,19.0,
20200125_221001.geojson,flash,flash_35056,2020-01-25 22:09:20,8.543202,47.411108,,76.0,,,19.0,
20200125_221001.geojson,flash,flash_36399,2020-01-25 22:09:20,8.544257,47.411058,,96.0,,,24.0,
20200125_221001.geojson,flash,flash_38093,2020-01-25 22:09:20,8.540502,47.41268,,99.0,,,25.0,
20200125_221001.geojson,flash,flash_35145,2020-01-25 22:09:20,8.549467,47.413072,,75.0,,,19.0,
20200125_221001.geojson,flash,flash_37743,2020-01-25 22:09:20,8.545548,47.412188,,96.0,,,24.0,
20200125_221001.geojson,flash,flash_35703,2020-01-25 22:09:20,8.541612,47.413447,,98.0,,,25.0,
20200125_221001.geojson,flash,flash_40381,2020-01-25 22:09:20,8.546033,47.419275,,99.0,,,25.0,
20200125_221001.geojson,flash,flash_37733,2020-01-25 22:09:20,8.546727,47.417953,,56.0,,,14.0,
20200125_221001.geojson,flash,flash_34786,2020-01-25 22:09:20,8.541842,47.416963,,96.0,,,24.0,
20200125_221001.geojson,flash,flash_38128,2020-01-25 22:09:20,8.546422,47.415757,,76.0,,,19.0,
20200125_221001.geojson,flash,flash_35396,2020-01-25 22:09:20,8.544857,47.416277,,97.0,,,24.0,
20200125_221001.geojson,flash,flash_37959,2020-01-25 22:09:20,8.526632,47.37753,,65.0,,,16.0,
20200125_221001.geojson,flash,flash_36384,2020-01-25 22:09:20,8.52844,47.392195,,74.0,,,19.0,
20200125_221001.geojson,flash,flash_37925,2020-01-25 22:09:20,8.521105,47.39091,,76.0,,,19.0,
20200125_221001.geojson,flash,flash_36499,2020-01-25 22:09:20,8.531173,47.378987,,80.0,,,20.0,
20200125_221001.geojson,flash,flash_35393,2020-01-25 22:09:20,8.524698,47.378927,,79.0,,,20.0,
20200125_221001.geojson,flash,flash_37983,2020-01-25 22:09:20,8.526697,47.378977,,57.0,,,14.0,
20200125_221001.geojson,flash,flash_34702,2020-01-25 22:09:20,8.521967,47.390097,,62.0,,,16.0,
20200125_221001.geojson,flash,flash_35002,2020-01-25 22:09:20,8.52196,47.39007,,73.0,,,18.0,
20200125_221001.geojson,flash,flash_37911,2020-01-25 22:09:20,8.52544,47.379147,,96.0,,,24.0,
20200125_221001.geojson,flash,flash_35616,2020-01-25 22:09:20,8.521122,47.389567,,93.0,,,23.0,
20200125_221001.geojson,flash,flash_37966,2020-01-25 22:09:20,8.523642,47.37967,,55.0,,,14.0,
20200125_221001.geojson,flash,flash_35373,2020-01-25 22:09:20,8.521868,47.389827,,91.0,,,23.0,
20200125_221001.geojson,flash,flash_34883,2020-01-25 22:09:20,8.521203,47.389423,,74.0,,,19.0,
20200125_221001.geojson,flash,flash_37835,2020-01-25 22:09:20,8.528035,47.390595,,85.0,,,21.0,
20200125_221001.geojson,flash,flash_35605,2020-01-25 22:09:20,8.52804,47.39058,,72.0,,,18.0,
20200125_221001.geojson,flash,flash_36377,2020-01-25 22:09:20,8.522427,47.389398,,73.0,,,18.0,
20200125_221001.geojson,flash,flash_34616,2020-01-25 22:09:20,8.523008,47.389487,,70.0,,,18.0,
20200125_221001.geojson,flash,flash_38138,2020-01-25 22:09:20,8.527487,47.380038,,94.0,,,24.0,
20200125_221001.geojson,flash,flash_38168,2020-01-25 22:09:20,8.53202,47.38243,,94.0,,,24.0,
20200125_221001.geojson,flash,flash_34743,2020-01-25 22:09:20,8.520762,47.384978,,75.0,,,19.0,
20200125_221001.geojson,flash,flash_38012,2020-01-25 22:09:20,8.5319,47.38241,,51.0,,,13.0,
20200125_221001.geojson,flash,flash_34331,2020-01-25 22:09:20,8.53171,47.383425,,80.0,,,20.0,
20200125_221001.geojson,flash,flash_34746,2020-01-25 22:09:20,8.522035,47.385883,,99.0,,,25.0,
20200125_221001.geojson,flash,flash_37851,2020-01-25 22:09:20,8.522635,47.385625,,60.0,,,16.0,
20200125_221001.geojson,flash,flash_35593,2020-01-25 22:09:20,8.530872,47.383835,,60.0,,,15.0,
20200125_221001.geojson,flash,flash_35364,2020-01-25 22:09:20,8.524413,47.387368,,90.0,,,23.0,
20200125_221001.geojson,flash,flash_35441,2020-01-25 22:09:20,8.529715,47.386975,,53.0,,,13.0,
20200125_221001.geojson,flash,flash_34298,2020-01-25 22:09:20,8.53043,47.384332,,68.0,,,17.0,
20200125_221001.geojson,flash,flash_34945,2020-01-25 22:09:20,8.526107,47.387292,,86.0,,,22.0,
20200125_221001.geojson,flash,flash_37923,2020-01-25 22:09:20,8.526302,47.387278,,91.0,,,23.0,
20200125_221001.geojson,flash,flash_34656,2020-01-25 22:09:20,8.528352,47.385252,,51.0,,,13.0,
20200125_221001.geojson,flash,flash_34934,2020-01-25 22:09:20,8.492208,47.369082,,60.0,,,15.0,
20200125_221001.geojson,flash,flash_38020,2020-01-25 22:09:20,8.499465,47.37382,,88.0,,,22.0,
20200125_221001.geojson,flash,flash_37745,2020-01-25 22:09:20,8.494622,47.376322,,74.0,,,19.0,
20200125_221001.geojson,flash,flash_35665,2020-01-25 22:09:20,8.482243,47.397103,,60.0,,,15.0,
20200125_221001.geojson,flash,flash_35330,2020-01-25 22:09:20,8.49008,47.376015,,53.0,,,13.0,
20200125_221001.geojson,flash,flash_37972,2020-01-25 22:09:20,8.491135,47.39298,,89.0,,,22.0,
20200125_221001.geojson,flash,flash_35598,2020-01-25 22:09:20,8.491072,47.392942,,80.0,,,22.0,
20200125_221001.geojson,flash,flash_37811,2020-01-25 22:09:20,8.490005,47.378123,,54.0,,,14.0,
20200125_221001.geojson,flash,flash_37764,2020-01-25 22:09:20,8.471305,47.392603,,80.0,,,20.0,
20200125_221001.geojson,flash,flash_38038,2020-01-25 22:09:20,8.469295,47.390947,,80.0,,,20.0,
20200125_221001.geojson,flash,flash_34971,2020-01-25 22:09:20,8.489083,47.377947,,60.0,,,16.0,
20200125_221001.geojson,flash,flash_35701,2020-01-25 22:09:20,8.467998,47.38894,,72.0,,,18.0,
20200125_221001.geojson,flash,flash_37857,2020-01-25 22:09:20,8.473617,47.393253,,60.0,,,17.0,
20200125_221001.geojson,flash,flash_36443,2020-01-25 22:09:20,8.469397,47.3895,,76.0,,,19.0,
20200125_221001.geojson,flash,flash_37900,2020-01-25 22:09:20,8.474688,47.392778,,60.0,,,15.0,
20200125_221001.geojson,flash,flash_37901,2020-01-25 22:09:20,8.488902,47.391528,,100.0,,,25.0,
20200125_221001.geojson,flash,flash_37748,2020-01-25 22:09:20,8.48884,47.39152,,100.0,,,25.0,
20200125_221001.geojson,flash,flash_34437,2020-01-25 22:09:20,8.488858,47.391508,,100.0,,,25.0,
20200125_221001.geojson,flash,flash_34519,2020-01-25 22:09:20,8.488895,47.391427,,100.0,,,25.0,
20200125_221001.geojson,flash,flash_34222,2020-01-25 22:09:20,8.488887,47.391428,,99.0,,,25.0,
20200125_221001.geojson,flash,flash_35018,2020-01-25 22:09:20,8.488822,47.391413,,99.0,,,25.0,
20200125_221001.geojson,flash,flash_35037,2020-01-25 22:09:20,8.488732,47.391343,,100.0,,,25.0,
20200125_221001.geojson,flash,flash_36415,2020-01-25 22:09:20,8.488662,47.391265,,100.0,,,25.0,
20200125_221001.geojson,flash,flash_34411,2020-01-25 22:09:20,8.48883,47.391142,,100.0,,,25.0,
20200125_221001.geojson,flash,flash_35377,2020-01-25 22:09:20,8.476513,47.392357,,60.0,,,19.0,
20200125_221001.geojson,flash,flash_37954,2020-01-25 22:09:20,8.473393,47.390187,,80.0,,,20.0,
20200125_221001.geojson,flash,flash_35590,2020-01-25 22:09:20,8.475015,47.390618,,80.0,,,20.0,
20200125_221001.geojson,flash,flash_35085,2020-01-25 22:09:20,8.478737,47.391577,,51.0,,,13.0,
20200125_221001.geojson,flash,flash_36400,2020-01-25 22:09:20,8.48355,47.380312,,53.0,,,13.0,
20200125_221001.geojson,flash,flash_35093,2020-01-25 22:09:20,8.480693,47.390852,,80.0,,,20.0,
20200125_221001.geojson,flash,flash_34623,2020-01-25 22:09:20,8.485315,47.388112,,73.0,,,18.0,
20200125_221001.geojson,flash,flash_34427,2020-01-25 22:09:20,8.48379,47.387463,,79.0,,,20.0,
20200125_221001.geojson,flash,flash_34252,2020-01-25 22:09:20,8.481967,47.386883,,51.0,,,13.0,
20200125_221001.geojson,flash,flash_34391,2020-01-25 22:09:20,8.540777,47.376283,,80.0,,,20.0,
20200125_221001.geojson,flash,flash_35090,2020-01-25 22:09:20,8.540833,47.376395,,94.0,,,24.0,
20200125_221001.geojson,flash,flash_34553,2020-01-25 22:09:20,8.543493,47.375805,,59.0,,,15.0,
20200125_221001.geojson,flash,flash_38174,2020-01-25 22:09:20,8.554558,47.373948,,53.0,,,13.0,
20200125_221001.geojson,flash,flash_34349,2020-01-25 22:09:20,8.543742,47.376402,,92.0,,,23.0,
20200125_221001.geojson,flash,flash_37718,2020-01-25 22:09:20,8.544122,47.376717,,58.0,,,15.0,
20200125_221001.geojson,flash,flash_35157,2020-01-25 22:09:20,8.54672,47.376297,,78.0,,,20.0,
20200125_221001.geojson,flash,flash_35728,2020-01-25 22:09:20,8.546725,47.376352,,80.0,,,21.0,
20200125_221001.geojson,flash,flash_34487,2020-01-25 22:09:20,8.551883,47.37977,,59.0,,,15.0,
20200125_221001.geojson,flash,flash_37792,2020-01-25 22:09:20,8.548138,47.383435,,54.0,,,14.0,
20200125_221001.geojson,flash,flash_37679,2020-01-25 22:09:20,8.488013,47.384372,,56.0,,,14.0,
20200125_221001.geojson,flash,flash_35748,2020-01-25 22:09:20,8.514555,47.377193,,67.0,,,17.0,
20200125_221001.geojson,flash,flash_37917,2020-01-25 22:09:20,8.49145,47.39191,,80.0,,,20.0,
20200125_221001.geojson,flash,flash_34606,2020-01-25 22:09:20,8.506107,47.395695,,93.0,,,23.0,
20200125_221001.geojson,flash,flash_35509,2020-01-25 22:09:20,8.517573,47.389415,,94.0,,,24.0,
20200125_221001.geojson,flash,flash_38132,2020-01-25 22:09:20,8.518668,47.38645,,100.0,,,25.0,
20200125_221001.geojson,flash,flash_35534,2020-01-25 22:09:20,8.518555,47.386348,,100.0,,,25.0,
20200125_221001.geojson,flash,flash_36427,2020-01-25 22:09:20,8.518585,47.385888,,100.0,,,25.0,
20200125_221001.geojson,flash,flash_34718,2020-01-25 22:09:20,8.51501,47.391782,,99.0,,,25.0,
20200125_221001.geojson,flash,flash_34513,2020-01-25 22:09:20,8.514688,47.391945,,100.0,,,25.0,
20200125_221001.geojson,flash,flash_34644,2020-01-25 22:09:20,8.514795,47.39185,,80.0,,,20.0,
20200125_221001.geojson,flash,flash_34754,2020-01-25 22:09:20,8.518473,47.385533,,99.0,,,25.0,
20200125_221001.geojson,flash,flash_34441,2020-01-25 22:09:20,8.518382,47.385913,,52.0,,,13.0,
20200125_221001.geojson,flash,flash_35744,2020-01-25 22:09:20,8.51834,47.386142,,100.0,,,25.0,
20200125_221001.geojson,flash,flash_37961,2020-01-25 22:09:20,8.517532,47.388478,,52.0,,,13.0,
20200125_221001.geojson,flash,flash_35442,2020-01-25 22:09:20,8.518283,47.38608,,99.0,,,25.0,
20200125_221001.geojson,flash,flash_35232,2020-01-25 22:09:20,8.514918,47.391557,,75.0,,,19.0,
20200125_221001.geojson,flash,flash_34267,2020-01-25 22:09:20,8.518243,47.386005,,96.0,,,24.0,
20200125_221001.geojson,flash,flash_35314,2020-01-25 22:09:20,8.514877,47.39152,,100.0,,,25.0,
20200125_221001.geojson,flash,flash_37895,2020-01-25 22:09:20,8.516592,47.380707,,79.0,,,20.0,
20200125_221001.geojson,flash,flash_37813,2020-01-25 22:09:20,8.518187,47.38617,,100.0,,,25.0,
20200125_221001.geojson,flash,flash_35388,2020-01-25 22:09:20,8.518168,47.386097,,100.0,,,25.0,
20200125_221001.geojson,flash,flash_35333,2020-01-25 22:09:20,8.514548,47.391695,,60.0,,,15.0,
20200125_221001.geojson,flash,flash_37984,2020-01-25 22:09:20,8.514705,47.39153,,99.0,,,25.0,
20200125_221001.geojson,flash,flash_34310,2020-01-25 22:09:20,8.517335,47.382143,,60.0,,,15.0,
20200125_221001.geojson,flash,flash_37981,2020-01-25 22:09:20,8.517953,47.386238,,98.0,,,25.0,
20200125_221001.geojson,flash,flash_35089,2020-01-25 22:09:20,8.516995,47.388503,,79.0,,,20.0,
20200125_221001.geojson,flash,flash_35057,2020-01-25 22:09:20,8.517158,47.386332,,92.0,,,23.0,
20200125_221001.geojson,flash,flash_37864,2020-01-25 22:09:20,8.499175,47.376998,,58.0,,,15.0,
20200125_221001.geojson,flash,flash_37824,2020-01-25 22:09:20,8.51695,47.38599,,76.0,,,19.0,
20200125_221001.geojson,flash,flash_35171,2020-01-25 22:09:20,8.496618,47.39216,,51.0,,,13.0,
20200125_221001.geojson,flash,flash_34922,2020-01-25 22:09:20,8.49556,47.379208,,54.0,,,14.0,
