	charge	electric	id	manual	name	provider	range	size	longitude	latitude	timestamp	filename
0		7.0	pb_60	9.0	Demo Station Werdmühleplatz	publibike			8.540062	47.374392	2020-01-25 21:51:45	20200125_215201.geojson
1		3.0	pb_61	4.0	Marktplatz	publibike			8.5452956	47.4099615	2020-01-25 21:51:45	20200125_215201.geojson
2		8.0	pb_80	9.0	Bullingerplatz	publibike			8.5156327	47.3795837	2020-01-25 21:51:45	20200125_215201.geojson
3		1.0	pb_81	4.0	Herdern	publibike			8.5104051	47.3899342	2020-01-25 21:51:45	20200125_215201.geojson
4		0.0	pb_82	1.0	Hafen Enge	publibike			8.535718	47.359675	2020-01-25 21:51:45	20200125_215201.geojson
5		3.0	pb_83	1.0	Comerge	publibike			8.520370505	47.358663827	2020-01-25 21:51:45	20200125_215201.geojson
6		13.0	pb_84	33.0	Landesmuseum	publibike			8.5412505	47.3789825	2020-01-25 21:51:45	20200125_215201.geojson
7		3.0	pb_85	6.0	Bahnhof Wiedikon	publibike			8.5235479	47.3716661	2020-01-25 21:51:45	20200125_215201.geojson
8		0.0	pb_86	0.0	ETH Hönggerberg	publibike			8.506822854	47.40781197	2020-01-25 21:51:45	20200125_215201.geojson
9		0.0	pb_87	5.0	Pelikanplatz	publibike			8.536101	47.371083	2020-01-25 21:51:45	20200125_215201.geojson
10		4.0	pb_88	2.0	Hürlimannplatz	publibike			8.5257822	47.3651936	2020-01-25 21:51:45	20200125_215201.geojson
11		3.0	pb_89	4.0	Stauffacherbrücke	publibike			8.5313344	47.3713591	2020-01-25 21:51:45	20200125_215201.geojson
12		3.0	pb_90	2.0	Sportweg	publibike			8.5056978	47.3917964	2020-01-25 21:51:45	20200125_215201.geojson
13		0.0	pb_91	6.0	Puls 5	publibike			8.5181701	47.3917837	2020-01-25 21:51:45	20200125_215201.geojson
14		6.0	pb_92	1.0	Röntgenstrasse	publibike			8.5286468	47.3820827	2020-01-25 21:51:45	20200125_215201.geojson
15		0.0	pb_93	4.0	Limmatplatz	publibike			8.531935	47.384918	2020-01-25 21:51:45	20200125_215201.geojson
16		9.0	pb_94	7.0	Gessnerallee	publibike			8.5354006	47.3758639	2020-01-25 21:51:45	20200125_215201.geojson
17		9.0	pb_95	6.0	Bäckeranlage	publibike			8.523818	47.377148	2020-01-25 21:51:45	20200125_215201.geojson
18		5.0	pb_96	4.0	Gustav-Gull-Platz	publibike			8.531836	47.378548	2020-01-25 21:51:45	20200125_215201.geojson
19		8.0	pb_97	4.0	Zurlindenstrasse	publibike			8.5104883	47.3771535	2020-01-25 21:51:45	20200125_215201.geojson
20		2.0	pb_98	1.0	Sihlstrasse	publibike			8.5333139	47.3731102	2020-01-25 21:51:45	20200125_215201.geojson
21		0.0	pb_99	14.0	Kalkbreite	publibike			8.520532	47.374951	2020-01-25 21:51:45	20200125_215201.geojson
22		4.0	pb_100	1.0	Zürcher Kantonalbank	publibike			8.539046	47.368064	2020-01-25 21:51:45	20200125_215201.geojson
23		4.0	pb_101	0.0	Rentenanstalt	publibike			8.5348427	47.3625938	2020-01-25 21:51:45	20200125_215201.geojson
24		1.0	pb_102	2.0	Turbinenplatz	publibike			8.5166922	47.3897772	2020-01-25 21:51:45	20200125_215201.geojson
25		2.0	pb_104	10.0	Rennweg	publibike			8.539312	47.3739964	2020-01-25 21:51:45	20200125_215201.geojson
26		20.0	pb_105	32.0	Sihlpost	publibike			8.5360685	47.3775022	2020-01-25 21:51:45	20200125_215201.geojson
27		2.0	pb_106	7.0	Museum für Gestaltung	publibike			8.53545	47.382798	2020-01-25 21:51:45	20200125_215201.geojson
28		11.0	pb_107	7.0	Bederbrücke	publibike			8.5306155	47.3647902	2020-01-25 21:51:45	20200125_215201.geojson
29		4.0	pb_108	8.0	Bahnhof Hardbrücke	publibike			8.518982	47.386741	2020-01-25 21:51:45	20200125_215201.geojson
30		1.0	pb_109	1.0	Tamedia	publibike			8.53001018	47.37247535	2020-01-25 21:51:45	20200125_215201.geojson
31		9.0	pb_110	7.0	Grünau	publibike			8.4860017	47.396401	2020-01-25 21:51:45	20200125_215201.geojson
32		0.0	pb_111	0.0	ETH Zentrum	publibike			8.548519	47.376756	2020-01-25 21:51:45	20200125_215201.geojson
33		2.0	pb_112	4.0	Steinfelsareal	publibike			8.520449	47.388151	2020-01-25 21:51:45	20200125_215201.geojson
34		0.0	pb_124	3.0	Weststrasse	publibike			8.520482	47.37209	2020-01-25 21:51:45	20200125_215201.geojson
35		6.0	pb_125	0.0	Utogrund	publibike			8.496727	47.378521	2020-01-25 21:51:45	20200125_215201.geojson
36		2.0	pb_126	2.0	Hardau	publibike			8.510418	47.381356	2020-01-25 21:51:45	20200125_215201.geojson
37		3.0	pb_127	0.0	Klopstockwiese	publibike			8.525525	47.361567	2020-01-25 21:51:45	20200125_215201.geojson
38		9.0	pb_128	4.0	Binz	publibike			8.518143	47.363148	2020-01-25 21:51:45	20200125_215201.geojson
39		0.0	pb_129	0.0	Stampfenbachplatz	publibike			8.542726	47.379952	2020-01-25 21:51:45	20200125_215201.geojson
40		5.0	pb_130	9.0	Bahnhof Altstetten	publibike			8.488108	47.391366	2020-01-25 21:51:45	20200125_215201.geojson
41		5.0	pb_131	1.0	Kreuzplatz	publibike			8.554114	47.365119	2020-01-25 21:51:45	20200125_215201.geojson
42		1.0	pb_132	4.0	Blatterwiese	publibike			8.549852	47.35594	2020-01-25 21:51:45	20200125_215201.geojson
43		6.0	pb_133	5.0	Villa Bleuler	publibike			8.554501	47.36162	2020-01-25 21:51:45	20200125_215201.geojson
44		5.0	pb_134	3.0	Mühlebachstrasse	publibike			8.557088	47.358557	2020-01-25 21:51:45	20200125_215201.geojson
45		2.0	pb_135	10.0	Seebad Utoquai	publibike			8.547639	47.361266	2020-01-25 21:51:45	20200125_215201.geojson
46		12.0	pb_137	0.0	Kunsthaus	publibike			8.548045	47.370869	2020-01-25 21:51:45	20200125_215201.geojson
47		3.0	pb_138	16.0	Central	publibike			8.543447	47.375933	2020-01-25 21:51:45	20200125_215201.geojson
48		1.0	pb_139	4.0	ewz Tramstrasse	publibike			8.549356	47.408827	2020-01-25 21:51:45	20200125_215201.geojson
49		3.0	pb_140	2.0	Bleicherweg	publibike			8.533736	47.366904	2020-01-25 21:51:45	20200125_215201.geojson
50		35.0	pb_141	25.0	Bellevue	publibike			8.544935	47.366752	2020-01-25 21:51:45	20200125_215201.geojson
51		4.0	pb_142	2.0	Stauffacher	publibike			8.5285533	47.3742296	2020-01-25 21:51:45	20200125_215201.geojson
52		4.0	pb_143	3.0	Escher-Wyss-Platz	publibike			8.523722	47.3899	2020-01-25 21:51:45	20200125_215201.geojson
53		1.0	pb_149	13.0	Vulkanplatz	publibike			8.491061	47.392336	2020-01-25 21:51:45	20200125_215201.geojson
54		9.0	pb_150	7.0	Utoplatz	publibike			8.52306	47.359872	2020-01-25 21:51:45	20200125_215201.geojson
55		12.0	pb_151	11.0	Lindenplatz	publibike			8.486284	47.387685	2020-01-25 21:51:45	20200125_215201.geojson
56		2.0	pb_152	8.0	Luggweg	publibike			8.49163	47.389823	2020-01-25 21:51:45	20200125_215201.geojson
57		4.0	pb_153	0.0	Manesseplatz	publibike			8.52174	47.365272	2020-01-25 21:51:45	20200125_215201.geojson
58		5.0	pb_154	0.0	Werd	publibike			8.52714	47.372329	2020-01-25 21:51:45	20200125_215201.geojson
59		0.0	pb_155	0.0	Rudolf-Brun-Brücke	publibike			8.543042	47.374711	2020-01-25 21:51:45	20200125_215201.geojson
60		1.0	pb_156	2.0	Luggwegstrasse VBZ	publibike			8.490837	47.386596	2020-01-25 21:51:45	20200125_215201.geojson
61		8.0	pb_157	5.0	Strandbad Mythenquai	publibike			8.535119	47.355189	2020-01-25 21:51:45	20200125_215201.geojson
62		5.0	pb_158	7.0	Predigerplatz	publibike			8.545505	47.373675	2020-01-25 21:51:45	20200125_215201.geojson
63		0.0	pb_159	1.0	Zwinglihaus	publibike			8.515558	47.371868	2020-01-25 21:51:45	20200125_215201.geojson
64		2.0	pb_160	3.0	Josefwiese	publibike			8.524629	47.386072	2020-01-25 21:51:45	20200125_215201.geojson
65		5.0	pb_164	3.0	Markthalle	publibike			8.527138	47.387531	2020-01-25 21:51:45	20200125_215201.geojson
66		8.0	pb_263	16.0	Feldeggstrasse	publibike			8.552717	47.359978	2020-01-25 21:51:45	20200125_215201.geojson
67		0.0	pb_264	0.0	Lake Side	publibike			8.553189	47.353198	2020-01-25 21:51:45	20200125_215201.geojson
68		0.0	pb_265	0.0	Helmhaus	publibike			8.543437	47.369256	2020-01-25 21:51:45	20200125_215201.geojson
69		10.0	pb_266	8.0	Lochergut	publibike			8.516676	47.375819	2020-01-25 21:51:45	20200125_215201.geojson
70		2.0	pb_273	3.0	Westpark	publibike			8.514605	47.389862	2020-01-25 21:51:45	20200125_215201.geojson
71		7.0	pb_274	10.0	Beatenplatz	publibike			8.541239126	47.375991201	2020-01-25 21:51:45	20200125_215201.geojson
72		0.0	pb_275	0.0	Pauluskirche	publibike			8.5417135	47.3942197	2020-01-25 21:51:45	20200125_215201.geojson
73		0.0	pb_276	11.0	Airgate	publibike			8.5528182	47.414558	2020-01-25 21:51:45	20200125_215201.geojson
74		4.0	pb_277	4.0	Lamprechtweg	publibike			8.537816	47.413514	2020-01-25 21:51:45	20200125_215201.geojson
75		8.0	pb_278	9.0	Emil-Oberhänsli	publibike			8.545602	47.417701	2020-01-25 21:51:45	20200125_215201.geojson
76		2.0	pb_279	0.0	Bucheggplatz	publibike			8.533647	47.39808	2020-01-25 21:51:45	20200125_215201.geojson
77		3.0	pb_280	5.0	Wipkingerplatz	publibike			8.523549	47.392347	2020-01-25 21:51:45	20200125_215201.geojson
78		14.0	pb_285	2.0	Bahnhof Stadelhofen	publibike			8.548562	47.36691	2020-01-25 21:51:45	20200125_215201.geojson
79		0.0	pb_286	3.0	Tüffenwies	publibike			8.493822	47.3985553	2020-01-25 21:51:45	20200125_215201.geojson
80		4.0	pb_356	0.0	Siriuswiese	publibike			8.552432	47.3801757	2020-01-25 21:51:45	20200125_215201.geojson
81		2.0	pb_357	3.0	Hallwylstrasse	publibike			8.527298	47.370141	2020-01-25 21:51:45	20200125_215201.geojson
82		3.0	pb_358	1.0	Milchbuck	publibike			8.5414185	47.3972455	2020-01-25 21:51:45	20200125_215201.geojson
83		2.0	pb_359	1.0	Fischerweg	publibike			8.512381	47.393409	2020-01-25 21:51:45	20200125_215201.geojson
84		0.0	pb_360	1.0	Kirche Unterstrass	publibike			8.5421457	47.3876979	2020-01-25 21:51:45	20200125_215201.geojson
85		0.0	pb_361	0.0	Dorfstrasse	publibike			8.522117	47.394554	2020-01-25 21:51:45	20200125_215201.geojson
86		2.0	pb_362	3.0	Stauffachertor	publibike			8.530437	47.37271	2020-01-25 21:51:45	20200125_215201.geojson
87		1.0	pb_363	2.0	Wahlenpark	publibike			8.541712	47.416155	2020-01-25 21:51:45	20200125_215201.geojson
88		9.0	pb_364	1.0	Kinderspital	publibike			8.5595335	47.3708387	2020-01-25 21:51:45	20200125_215201.geojson
89		1.0	pb_365	0.0	Kornhausstrasse	publibike			8.536433	47.388689	2020-01-25 21:51:45	20200125_215201.geojson
90		3.0	pb_366	1.0	Dorflinde	publibike			8.55033	47.407098	2020-01-25 21:51:45	20200125_215201.geojson
91		11.0	pb_367	0.0	Römerhof	publibike			8.560476	47.368199	2020-01-25 21:51:45	20200125_215201.geojson
92		7.0	pb_368	4.0	Hegibachplatz	publibike			8.5609218	47.3619068	2020-01-25 21:51:45	20200125_215201.geojson
93		5.0	pb_370	5.0	Schwamendingerplatz	publibike			8.5721264	47.4039985	2020-01-25 21:51:45	20200125_215201.geojson
94		6.0	pb_384	9.0	Hermann-Greulich-Weg	publibike			8.520168	47.378556	2020-01-25 21:51:45	20200125_215201.geojson
95		0.0	pb_386	2.0	Rigiplatz	publibike			8.547912	47.384923	2020-01-25 21:51:45	20200125_215201.geojson
96		2.0	pb_387	2.0	Bahnhof Oerlikon Süd	publibike			8.543768	47.411057	2020-01-25 21:51:45	20200125_215201.geojson
97		3.0	pb_388	7.0	Max-Frisch-Platz	publibike			8.544185	47.412732	2020-01-25 21:51:45	20200125_215201.geojson
98		0.0	pb_389	10.0	Hunziker-Areal	publibike			8.558096	47.413032	2020-01-25 21:51:45	20200125_215201.geojson
99		1.0	pb_390	4.0	Luis-Häfliger-Park	publibike			8.533265	47.412873	2020-01-25 21:51:45	20200125_215201.geojson
100		1.0	pb_391	0.0	Meierhofplatz	publibike			8.499265	47.401852	2020-01-25 21:51:45	20200125_215201.geojson
101		8.0	pb_392	0.0	Röschibachplatz	publibike			8.528356	47.393255	2020-01-25 21:51:45	20200125_215201.geojson
102		6.0	pb_393	2.0	Oerliker Park	publibike			8.538067	47.415721	2020-01-25 21:51:45	20200125_215201.geojson
103		2.0	pb_395	11.0	Bürkliplatz	publibike			8.5420304	47.3669233	2020-01-25 21:51:45	20200125_215201.geojson
104		1.0	pb_396	0.0	Holunderhof	publibike			8.535767	47.409881	2020-01-25 21:51:45	20200125_215201.geojson
105		2.0	pb_431	0.0	Binz Center	publibike			8.5116245	47.3616199	2020-01-25 21:51:45	20200125_215201.geojson
106		2.0	pb_430	1.0	Stapferstube	publibike			8.547195	47.382089	2020-01-25 21:51:45	20200125_215201.geojson
107		1.0	pb_426	3.0	Kronwiesen	publibike			8.5787183	47.4039845	2020-01-25 21:51:45	20200125_215201.geojson
108		8.0	pb_425	3.0	Bahnhof Affoltern	publibike			8.508131	47.420757	2020-01-25 21:51:45	20200125_215201.geojson
109		0.0	pb_424	3.0	Birchdörfli	publibike			8.532464	47.406988	2020-01-25 21:51:45	20200125_215201.geojson
110		2.0	pb_429	4.0	Luegisland	publibike			8.5777038	47.4080095	2020-01-25 21:51:45	20200125_215201.geojson
111		1.0	pb_428	2.0	Hirzenbachstrasse	publibike			8.58841	47.40158	2020-01-25 21:51:45	20200125_215201.geojson
112		3.0	pb_445	9.0	Hallenbad Oerlikon	publibike			8.5563463	47.4095467	2020-01-25 21:51:45	20200125_215201.geojson
113		5.0	pb_454	1.0	General-Guisan-Quai	publibike			8.537971	47.364871	2020-01-25 21:51:45	20200125_215201.geojson
114		6.0	pb_450	4.0	Bahnhof Tiefenbrunnen	publibike			8.560587	47.350578	2020-01-25 21:51:45	20200125_215201.geojson
115		1.0	pb_452	6.0	Rieterplatz	publibike			8.5269416	47.3563719	2020-01-25 21:51:45	20200125_215201.geojson
116		4.0	pb_446	4.0	Binzallee	publibike			8.514176	47.3663708	2020-01-25 21:51:45	20200125_215201.geojson
117		13.0	pb_447	7.0	Gutstrasse	publibike			8.5070564	47.371455	2020-01-25 21:51:45	20200125_215201.geojson
118		5.0	pb_453	3.0	Flurpark	publibike			8.4941268	47.3836391	2020-01-25 21:51:45	20200125_215201.geojson
119		2.0	pb_448	1.0	Blüemliquartier	publibike			8.500343	47.380778	2020-01-25 21:51:45	20200125_215201.geojson
120		1.0	pb_449	7.0	Gasometerstrasse	publibike			8.528796	47.383858	2020-01-25 21:51:45	20200125_215201.geojson
121		8.0	pb_455	6.0	Letzipark	publibike			8.4981964	47.3859194	2020-01-25 21:51:45	20200125_215201.geojson
122		6.0	pb_451	1.0	Hardplatz	publibike			8.515252	47.381915	2020-01-25 21:51:45	20200125_215201.geojson
123		4.0	pb_427	5.0	Zehntenhausplatz	publibike			8.5064743	47.4188324	2020-01-25 21:51:45	20200125_215201.geojson
124		7.0	pb_513	9.0	Sihlquai	publibike			8.537729	47.379719	2020-01-25 21:51:45	20200125_215201.geojson
125		8.0	pb_514	4.0	Bahnhof Stettbach	publibike			8.596202	47.397885	2020-01-25 21:51:45	20200125_215201.geojson
126		4.0	pb_515	0.0	Hottingerplatz	publibike			8.5543974	47.3690153	2020-01-25 21:51:45	20200125_215201.geojson
127		0.0	pb_282	0.0	Theaterspektakel	publibike			8.534444	47.351525	2020-01-25 21:51:45	20200125_215201.geojson
128		10.0	pb_538	1.0	Kirche Bühl	publibike			8.516257	47.367656	2020-01-25 21:51:45	20200125_215201.geojson
129		0.0	pb_537	4.0	Leutschenpark	publibike			8.555639	47.416873	2020-01-25 21:51:45	20200125_215201.geojson
130		5.0	pb_540	1.0	Berninaplatz	publibike			8.546464	47.403822	2020-01-25 21:51:45	20200125_215201.geojson
131		0.0	pb_385	2.0	Aegerten	publibike			8.523134	47.369004	2020-01-25 21:51:45	20200125_215201.geojson
132		5.0	pb_536	8.0	Freilager	publibike			8.49038	47.381591	2020-01-25 21:51:45	20200125_215201.geojson
133		8.0	pb_444	4.0	Sackzelg	publibike			8.496511	47.375247	2020-01-25 21:51:45	20200125_215201.geojson
134		4.0	pb_539	4.0	Glattwiesen	publibike			8.58131	47.402801	2020-01-25 21:51:45	20200125_215201.geojson
135		0.0	pb_560	5.0	Helvetiaplatz	publibike			8.52689	47.3767	2020-01-25 21:51:45	20200125_215201.geojson
136		1.0	pb_559	4.0	Bezirksgebäude	publibike			8.525602	47.374241	2020-01-25 21:51:45	20200125_215201.geojson
137		7.0	pb_564	0.0	GZ Wollishofen	publibike			8.535082	47.345248	2020-01-25 21:51:45	20200125_215201.geojson
138		4.0	pb_562	1.0	Goldbrunnenplatz	publibike			8.514841	47.370238	2020-01-25 21:51:45	20200125_215201.geojson
139		2.0	pb_557	0.0	Idaplatz	publibike			8.514138	47.374206	2020-01-25 21:51:45	20200125_215201.geojson
140		3.0	pb_558	7.0	Schmiede Wiedikon	publibike			8.518432	47.369549	2020-01-25 21:51:45	20200125_215201.geojson
141		6.0	pb_556	0.0	Schaffhauserplatz	publibike			8.537546	47.391289	2020-01-25 21:51:45	20200125_215201.geojson
142		1.0	pb_561	1.0	Center Eleven	publibike			8.541541	47.413733	2020-01-25 21:51:45	20200125_215201.geojson
143		3.0	pb_563	1.0	Mythenschloss	publibike			8.534227	47.360004	2020-01-25 21:51:45	20200125_215201.geojson
144		3.0	pb_566	7.0	Am Wasser	publibike			8.50373	47.396172	2020-01-25 21:51:45	20200125_215201.geojson
145		4.0	pb_565	9.0	Zollstrasse	publibike			8.532432	47.381174	2020-01-25 21:51:45	20200125_215201.geojson
146		1.0	pb_567	1.0	Dennlerstrasse	publibike			8.497982	47.381447	2020-01-25 21:51:45	20200125_215201.geojson
147		7.0	pb_568	7.0	Jugendherberge	publibike			8.528049	47.347701	2020-01-25 21:51:45	20200125_215201.geojson
148		6.0	pb_569	3.0	Freibad Allenmoos	publibike			8.539016	47.405751	2020-01-25 21:51:45	20200125_215201.geojson
149		4.0	pb_572	1.0	Radiostudio	publibike			8.534974	47.402164	2020-01-25 21:51:45	20200125_215201.geojson
150		0.0	pb_571	0.0	ETH/Zoologisches Museum	publibike			8.547901	47.375556	2020-01-25 21:51:45	20200125_215201.geojson
151	72.0		smide_2901		ZH 267278	smide	36.0	20.0	8.582185	47.351895	2020-01-25 21:51:20	20200125_215201.geojson
152	35.0		smide_2895		ZH 267279	smide	17.0	20.0	8.561211	47.350316	2020-01-25 21:51:20	20200125_215201.geojson
153	80.0		smide_2883		ZH 267272	smide	40.0	20.0	8.538945	47.375706	2020-01-25 21:51:20	20200125_215201.geojson
154	75.0		smide_2880		ZH267289	smide	37.0	17.0	8.514213	47.390361	2020-01-25 21:51:20	20200125_215201.geojson
155	89.0		smide_2874		ZH 267288	smide	44.0	17.0	8.560405	47.351675	2020-01-25 21:51:20	20200125_215201.geojson
156	83.0		smide_2871		ZH 267086	smide	41.0	20.0	8.495041	47.39838	2020-01-25 21:51:20	20200125_215201.geojson
157	89.0		smide_2867		ZH 267090	smide	44.0	20.0	8.557445	47.419073	2020-01-25 21:51:20	20200125_215201.geojson
158	47.0		smide_2861		ZH 267096	smide	23.0	17.0	8.557036	47.376956	2020-01-25 21:51:20	20200125_215201.geojson
159	75.0		smide_2860		ZH 267097	smide	37.0	17.0	8.48369	47.397155	2020-01-25 21:51:20	20200125_215201.geojson
160	52.0		smide_2859		ZH 267098	smide	26.0	17.0	8.533335	47.347405	2020-01-25 21:51:20	20200125_215201.geojson
161	36.0		smide_2856		ZH 267101	smide	18.0	17.0	8.579843	47.350713	2020-01-25 21:51:20	20200125_215201.geojson
162	59.0		smide_2855		ZH 267102	smide	29.0	17.0	8.552248	47.41122	2020-01-25 21:51:20	20200125_215201.geojson
163	38.0		smide_2854		ZH 267103	smide	19.0	17.0	8.553475	47.397501	2020-01-25 21:51:20	20200125_215201.geojson
164	100.0		smide_2833		ZH 267182	smide	50.0	20.0	8.518675	47.413558	2020-01-25 21:51:20	20200125_215201.geojson
165	94.0		smide_2831		ZH 267180	smide	47.0	20.0	8.570078	47.352288	2020-01-25 21:51:20	20200125_215201.geojson
166	75.0		smide_2829		ZH 267049	smide	37.0	20.0	8.528513	47.377018	2020-01-25 21:51:20	20200125_215201.geojson
167	84.0		smide_2804		ZH266903	smide	42.0	20.0	8.511846	47.420376	2020-01-25 21:51:20	20200125_215201.geojson
168	20.0		smide_2798		ZH266888	smide	10.0	17.0	8.553105	47.398375	2020-01-25 21:51:20	20200125_215201.geojson
169	43.0		smide_2792		ZH266882	smide	21.0	17.0	8.552998	47.413986	2020-01-25 21:51:20	20200125_215201.geojson
170	100.0		smide_2790		ZH266880	smide	50.0	17.0	8.512808	47.41532	2020-01-25 21:51:20	20200125_215201.geojson
171	28.0		smide_2781		ZH 266871	smide	14.0	17.0	8.560271	47.37228	2020-01-25 21:51:20	20200125_215201.geojson
172	47.0		smide_2775		ZH267283	smide	23.0	20.0	8.487291	47.384292	2020-01-25 21:51:20	20200125_215201.geojson
173	74.0		smide_2773		ZH266561	smide	37.0	17.0	8.487294	47.3843	2020-01-25 21:51:20	20200125_215201.geojson
174	100.0		smide_2763		ZH266641	smide	50.0	17.0	8.506986	47.406752	2020-01-25 21:51:20	20200125_215201.geojson
175	30.0		smide_2761		ZH266642	smide	15.0	20.0	8.513828	47.365145	2020-01-25 21:51:20	20200125_215201.geojson
176	90.0		smide_2758		ZH266638 M	smide	45.0	17.0	8.515626	47.364436	2020-01-25 21:51:20	20200125_215201.geojson
177	31.0		smide_2751		BE343857	smide	15.0	17.0	8.552638	47.38868	2020-01-25 21:51:20	20200125_215201.geojson
178	97.0		smide_2749		BE343867	smide	48.0	17.0	8.558095	47.371412	2020-01-25 21:51:20	20200125_215201.geojson
179	95.0		smide_2746		BE335817	smide	47.0	17.0	8.521975	47.35798	2020-01-25 21:51:20	20200125_215201.geojson
180	99.0		smide_2747		BE335820	smide	49.0	17.0	8.558269	47.404464	2020-01-25 21:51:20	20200125_215201.geojson
181	72.0		smide_2745		BE335818	smide	36.0	17.0	8.517122	47.387352	2020-01-25 21:51:20	20200125_215201.geojson
182	83.0		smide_2742		BE343866	smide	41.0	17.0	8.574743	47.352352	2020-01-25 21:51:20	20200125_215201.geojson
183	99.0		smide_2740		BE343875	smide	49.0	17.0	8.530278	47.352052	2020-01-25 21:51:20	20200125_215201.geojson
184	65.0		smide_2738		BE343865	smide	32.0	17.0	8.557675	47.370138	2020-01-25 21:51:20	20200125_215201.geojson
185	44.0		smide_2737		BE336149	smide	22.0	17.0	8.564208	47.36162	2020-01-25 21:51:20	20200125_215201.geojson
186	89.0		smide_2734		BE343876	smide	44.0	17.0	8.573823	47.383688	2020-01-25 21:51:20	20200125_215201.geojson
187	71.0		smide_2733		BE343873	smide	35.0	17.0	8.541369	47.397252	2020-01-25 21:51:20	20200125_215201.geojson
188	85.0		smide_2732		BE343870	smide	42.0	17.0	8.509427	47.395248	2020-01-25 21:51:20	20200125_215201.geojson
189	42.0		smide_2729		BE343878	smide	21.0	17.0	8.562155	47.410512	2020-01-25 21:51:20	20200125_215201.geojson
190	100.0		smide_2725		ZH261545	smide	50.0	0.0	8.490486	47.380865	2020-01-25 21:51:20	20200125_215201.geojson
191	84.0		smide_2718		ZH259019	smide	42.0	20.0	8.537026	47.367156	2020-01-25 21:51:20	20200125_215201.geojson
192	22.0		smide_2717		ZH263287	smide	11.0	17.0	8.503443	47.3967	2020-01-25 21:51:20	20200125_215201.geojson
193	93.0		smide_2716		ZH254606	smide	46.0	17.0	8.524311	47.398066	2020-01-25 21:51:20	20200125_215201.geojson
194	67.0		smide_2714		ZH256461	smide	33.0	17.0	8.544376	47.392868	2020-01-25 21:51:20	20200125_215201.geojson
195	60.0		smide_2710		ZH256460	smide	30.0	17.0	8.553487	47.402192	2020-01-25 21:51:20	20200125_215201.geojson
196	80.0		smide_2712		ZH256462	smide	40.0	17.0	8.543468	47.382984	2020-01-25 21:51:20	20200125_215201.geojson
197	95.0		smide_2711		ZH256463	smide	47.0	17.0	8.555689	47.357036	2020-01-25 21:51:20	20200125_215201.geojson
198	27.0		smide_2709		ZH256466	smide	13.0	20.0	8.574516	47.352601	2020-01-25 21:51:20	20200125_215201.geojson
199	63.0		smide_2707		ZH256467	smide	31.0	20.0	8.565782	47.364144	2020-01-25 21:51:20	20200125_215201.geojson
200	43.0		smide_2706		ZH256322	smide	21.0	20.0	8.513499	47.362408	2020-01-25 21:51:20	20200125_215201.geojson
201	37.0		smide_2705		ZH256471	smide	18.0	20.0	8.554712	47.40306	2020-01-25 21:51:20	20200125_215201.geojson
202	95.0		smide_2703		ZH256473	smide	47.0	20.0	8.512231	47.380276	2020-01-25 21:51:20	20200125_215201.geojson
203	21.0		smide_2701		ZH256468	smide	10.0	20.0	8.545347	47.423764	2020-01-25 21:51:20	20200125_215201.geojson
204	78.0		smide_2700		ZH256470	smide	39.0	20.0	8.536022	47.37778	2020-01-25 21:51:20	20200125_215201.geojson
205	27.0		smide_2699		ZH254611	smide	13.0	20.0	8.530224	47.390356	2020-01-25 21:51:20	20200125_215201.geojson
206	99.0		smide_2697		ZH254629	smide	49.0	20.0	8.518317	47.413596	2020-01-25 21:51:20	20200125_215201.geojson
207	57.0		smide_2696		ZH254616	smide	28.0	20.0	8.538537	47.377596	2020-01-25 21:51:20	20200125_215201.geojson
208	85.0		smide_2691		ZH254622	smide	42.0	20.0	8.556825	47.417193	2020-01-25 21:51:20	20200125_215201.geojson
209	27.0		smide_2690		ZH254625	smide	13.0	20.0	8.493844	47.400248	2020-01-25 21:51:20	20200125_215201.geojson
210	14.0		smide_2689		ZH254623	smide	7.0	20.0	8.498028	47.423964	2020-01-25 21:51:20	20200125_215201.geojson
211	14.0		smide_2687		ZH263529	smide	7.0	20.0	8.542104	47.42466	2020-01-25 21:51:20	20200125_215201.geojson
212	24.0		smide_2684		ZH254626	smide	12.0	20.0	8.572831	47.349024	2020-01-25 21:51:20	20200125_215201.geojson
213	39.0		smide_2683		ZH254620	smide	19.0	20.0	8.56694	47.3648	2020-01-25 21:51:20	20200125_215201.geojson
214	23.0		smide_2680		ZH254619	smide	11.0	20.0	8.572269	47.40418	2020-01-25 21:51:20	20200125_215201.geojson
215	92.0		smide_2679		ZH258489	smide	46.0	17.0	8.576337	47.351264	2020-01-25 21:51:20	20200125_215201.geojson
216	83.0		smide_2669		ZH263294	smide	41.0	17.0	8.476661	47.387376	2020-01-25 21:51:20	20200125_215201.geojson
217	100.0		smide_2668		ZH258640	smide	50.0	17.0	8.560767	47.355712	2020-01-25 21:51:20	20200125_215201.geojson
218	31.0		smide_2666		ZH258653	smide	15.0	17.0	8.560312	47.382144	2020-01-25 21:51:20	20200125_215201.geojson
219	100.0		smide_2665		ZH258644	smide	50.0	17.0	8.521548	47.361616	2020-01-25 21:51:20	20200125_215201.geojson
220	45.0		smide_2664		ZH258652	smide	22.0	17.0	8.528857	47.380076	2020-01-25 21:51:20	20200125_215201.geojson
221	84.0		smide_2662		ZH258643	smide	42.0	17.0	8.536132	47.377596	2020-01-25 21:51:20	20200125_215201.geojson
222	67.0		smide_2648		ZH257930	smide	33.0	20.0	8.554347	47.353336	2020-01-25 21:51:20	20200125_215201.geojson
223	100.0		smide_2657		ZH257936	smide	50.0	17.0	8.576005	47.352971	2020-01-25 21:51:20	20200125_215201.geojson
224	100.0		smide_2647		ZH257932	smide	50.0	20.0	8.53674	47.366212	2020-01-25 21:51:20	20200125_215201.geojson
225	23.0		smide_2645		ZH257933	smide	11.0	20.0	8.535853	47.356264	2020-01-25 21:51:20	20200125_215201.geojson
226	21.0		smide_105		ZH253804	smide	10.0	17.0	8.538938	47.377525	2020-01-25 21:51:20	20200125_215201.geojson
227	70.0		smide_186		ZH253751	smide	35.0	20.0	8.504559	47.380896	2020-01-25 21:51:20	20200125_215201.geojson
228	88.0		smide_173		ZH258501	smide	44.0	17.0	8.541351	47.37898	2020-01-25 21:51:20	20200125_215201.geojson
229	84.0		smide_77		ZH261548	smide	42.0	20.0	8.559297	47.406056	2020-01-25 21:51:20	20200125_215201.geojson
230	49.0		smide_200		ZH253801	smide	24.0	20.0	8.499107	47.401808	2020-01-25 21:51:20	20200125_215201.geojson
231	75.0		smide_197		ZH253864	smide	37.0	20.0	8.53869	47.337925	2020-01-25 21:51:20	20200125_215201.geojson
232	64.0		smide_199		ZH253766	smide	32.0	20.0	8.538395	47.38514	2020-01-25 21:51:20	20200125_215201.geojson
233	59.0		smide_8		ZH253861	smide	29.0	17.0	8.547836	47.403348	2020-01-25 21:51:20	20200125_215201.geojson
234	92.0		smide_45		ZH253716	smide	46.0	17.0	8.541948	47.383746	2020-01-25 21:51:20	20200125_215201.geojson
235	60.0		smide_188		ZH261543	smide	30.0	20.0	8.550491	47.4146	2020-01-25 21:51:20	20200125_215201.geojson
236	65.0		smide_143		ZH253778	smide	32.0	17.0	8.50606	47.381444	2020-01-25 21:51:20	20200125_215201.geojson
237	92.0		smide_180		ZH253824	smide	46.0	20.0	8.537043	47.379811	2020-01-25 21:51:20	20200125_215201.geojson
238	58.0		smide_20		ZH253770	smide	28.0	20.0	8.550015	47.398648	2020-01-25 21:51:20	20200125_215201.geojson
239	44.0		smide_50		ZH253853	smide	22.0	17.0	8.515771	47.364608	2020-01-25 21:51:20	20200125_215201.geojson
240	20.0		smide_30		ZH253813	smide	10.0	20.0	8.545746	47.372595	2020-01-25 21:51:20	20200125_215201.geojson
241	37.0		smide_10		ZH253855	smide	18.0	17.0	8.557778	47.370463	2020-01-25 21:51:20	20200125_215201.geojson
242	26.0		smide_165		ZH253752	smide	13.0	17.0	8.544369	47.376772	2020-01-25 21:51:20	20200125_215201.geojson
243	20.0		smide_76		ZH253764	smide	10.0	17.0	8.546945	47.375812	2020-01-25 21:51:20	20200125_215201.geojson
244	98.0		smide_49		ZH253873	smide	49.0	17.0	8.566931	47.362311	2020-01-25 21:51:20	20200125_215201.geojson
245	83.0		smide_94		ZH253754	smide	41.0	17.0	8.550346	47.397836	2020-01-25 21:51:20	20200125_215201.geojson
246	70.0		smide_191		ZH253762	smide	35.0	17.0	8.478653	47.389488	2020-01-25 21:51:20	20200125_215201.geojson
247	100.0		smide_202		ZH253830	smide	50.0	17.0	8.491043	47.377	2020-01-25 21:51:20	20200125_215201.geojson
248	85.0		smide_56		ZH261442	smide	42.0	20.0	8.574932	47.3733	2020-01-25 21:51:20	20200125_215201.geojson
249	92.0		smide_47		ZH253858	smide	46.0	17.0	8.516615	47.398145	2020-01-25 21:51:20	20200125_215201.geojson
250	35.0		smide_150		ZH253703	smide	17.0	20.0	8.527639	47.376256	2020-01-25 21:51:20	20200125_215201.geojson
251	74.0		smide_181		ZH253815	smide	37.0	17.0	8.545273	47.42366	2020-01-25 21:51:20	20200125_215201.geojson
252	100.0		smide_17		ZH253793	smide	50.0	17.0	8.557613	47.381618	2020-01-25 21:51:20	20200125_215201.geojson
253	63.0		smide_145		ZH253780	smide	31.0	20.0	8.582143	47.35187	2020-01-25 21:51:20	20200125_215201.geojson
254	53.0		smide_114		ZH253878	smide	26.0	20.0	8.510583	47.39842	2020-01-25 21:51:20	20200125_215201.geojson
255	14.0		smide_203		ZH261547	smide	7.0	17.0	8.541838	47.376148	2020-01-25 21:51:20	20200125_215201.geojson
256	14.0		smide_164		ZH253775	smide	7.0	17.0	8.528485	47.346936	2020-01-25 21:51:20	20200125_215201.geojson
257	80.0		smide_189		ZH253845	smide	40.0	20.0	8.535768	47.36876	2020-01-25 21:51:20	20200125_215201.geojson
258	46.0		smide_148		ZH253844	smide	23.0	20.0	8.489116	47.395764	2020-01-25 21:51:20	20200125_215201.geojson
259	88.0		smide_171		ZH253689	smide	44.0	20.0	8.544956	47.401124	2020-01-25 21:51:20	20200125_215201.geojson
260	69.0		smide_22		ZH253852	smide	34.0	17.0	8.535891	47.35628	2020-01-25 21:51:20	20200125_215201.geojson
261	89.0		smide_93		ZH253681	smide	44.0	17.0	8.555251	47.38396	2020-01-25 21:51:20	20200125_215201.geojson
262	100.0		smide_67		ZH253779	smide	50.0	17.0	8.570057	47.352296	2020-01-25 21:51:20	20200125_215201.geojson
263	17.0		smide_133		ZH253848	smide	8.0	20.0	8.509809	47.390212	2020-01-25 21:51:20	20200125_215201.geojson
264	87.0		smide_118		ZH253759	smide	43.0	20.0	8.479943	47.38567	2020-01-25 21:51:20	20200125_215201.geojson
265	94.0		smide_198		ZH253836	smide	47.0	17.0	8.546511	47.412676	2020-01-25 21:51:20	20200125_215201.geojson
266	100.0		smide_142		ZH258745	smide	50.0	17.0	8.503036	47.373796	2020-01-25 21:51:20	20200125_215201.geojson
267	50.0		smide_166		ZH253728	smide	25.0	17.0	8.54147	47.382696	2020-01-25 21:51:20	20200125_215201.geojson
268	42.0		smide_72		ZH253726	smide	21.0	17.0	8.488402	47.391196	2020-01-25 21:51:20	20200125_215201.geojson
269	53.0		smide_126		ZH268400	smide	26.0	17.0	8.489686	47.391172	2020-01-25 21:51:20	20200125_215201.geojson
270	59.0		smide_44		ZH253837	smide	29.0	17.0	8.563453	47.382066	2020-01-25 21:51:20	20200125_215201.geojson
271	74.0		smide_98		ZH256321	smide	37.0	17.0	8.513556	47.390176	2020-01-25 21:51:20	20200125_215201.geojson
272	92.0		smide_154		ZH253744	smide	46.0	20.0	8.524762	47.352152	2020-01-25 21:51:20	20200125_215201.geojson
273	55.0		smide_92		ZH253798	smide	27.0	17.0	8.51614	47.396928	2020-01-25 21:51:20	20200125_215201.geojson
274	95.0		smide_65		ZH253810	smide	47.0	17.0	8.531418	47.379736	2020-01-25 21:51:20	20200125_215201.geojson
275	56.0		smide_111		ZH253763	smide	28.0	17.0	8.522182	47.41076	2020-01-25 21:51:20	20200125_215201.geojson
276	79.0		smide_1		ZH253776	smide	39.0	17.0	8.529578	47.410328	2020-01-25 21:51:20	20200125_215201.geojson
277	84.0		smide_28		ZH253831	smide	42.0	17.0	8.556614	47.353572	2020-01-25 21:51:20	20200125_215201.geojson
278	100.0		smide_14		ZH253749	smide	50.0	20.0	8.567365	47.37617	2020-01-25 21:51:20	20200125_215201.geojson
279	70.0		smide_130		ZH253847	smide	35.0	20.0	8.557025	47.405312	2020-01-25 21:51:20	20200125_215201.geojson
280	100.0		smide_24		ZH253696	smide	50.0	20.0	8.532143	47.399856	2020-01-25 21:51:20	20200125_215201.geojson
281	36.0		smide_107		ZH253819	smide	18.0	17.0	8.533907	47.376976	2020-01-25 21:51:20	20200125_215201.geojson
282	70.0		smide_193		ZH253738	smide	35.0	20.0	8.554607	47.40288	2020-01-25 21:51:20	20200125_215201.geojson
283	100.0		smide_73		ZH261379	smide	50.0	20.0	8.563681	47.407841	2020-01-25 21:51:20	20200125_215201.geojson
284	33.0		smide_158		ZH253870	smide	16.0	20.0	8.549266	47.422108	2020-01-25 21:51:20	20200125_215201.geojson
285	72.0		smide_100		ZH253862	smide	36.0	20.0	8.55284	47.362492	2020-01-25 21:51:20	20200125_215201.geojson
286	31.0		smide_134		ZH253741	smide	15.0	20.0	8.560448	47.360191	2020-01-25 21:51:20	20200125_215201.geojson
287	78.0		smide_141		ZH253800	smide	39.0	20.0	8.501091	47.383736	2020-01-25 21:51:20	20200125_215201.geojson
288	91.0		smide_16		ZH253713	smide	45.0	20.0	8.494912	47.407192	2020-01-25 21:51:20	20200125_215201.geojson
289	64.0		smide_74		ZH253693	smide	32.0	20.0	8.518088	47.36764	2020-01-25 21:51:20	20200125_215201.geojson
290	100.0		smide_33		ZH253782	smide	50.0	20.0	8.496611	47.392145	2020-01-25 21:51:20	20200125_215201.geojson
291	38.0		smide_161		ZH253691	smide	19.0	20.0	8.561755	47.350304	2020-01-25 21:51:20	20200125_215201.geojson
292	58.0		smide_183		ZH253868	smide	28.0	17.0	8.537161	47.419223	2020-01-25 21:51:20	20200125_215201.geojson
293	20.0		smide_42		ZH253846	smide	10.0	20.0	8.483398	47.37464	2020-01-25 21:51:20	20200125_215201.geojson
294	43.0		smide_4		ZH253740	smide	21.0	20.0	8.562463	47.410616	2020-01-25 21:51:20	20200125_215201.geojson
295	69.0		smide_160		ZH253722	smide	34.0	17.0	8.539591	47.399724	2020-01-25 21:51:20	20200125_215201.geojson
296	28.0		smide_137		ZH258502	smide	14.0	17.0	8.551843	47.382156	2020-01-25 21:51:20	20200125_215201.geojson
297	83.0		smide_178		ZH253803	smide	41.0	17.0	8.541282	47.378952	2020-01-25 21:51:20	20200125_215201.geojson
298	88.0		smide_55		ZH253875	smide	44.0	17.0	8.558301	47.376153	2020-01-25 21:51:20	20200125_215201.geojson
299	91.0		smide_96		ZH256146	smide	45.0	20.0	8.510309	47.37112	2020-01-25 21:51:20	20200125_215201.geojson
300	76.0		smide_58		ZH259246	smide	38.0	20.0	8.519543	47.337228	2020-01-25 21:51:20	20200125_215201.geojson
301	67.0		smide_54		ZH253874	smide	33.0	20.0	8.557892	47.382768	2020-01-25 21:51:20	20200125_215201.geojson
302	86.0		smide_175		ZH253730	smide	43.0	17.0	8.493202	47.394324	2020-01-25 21:51:20	20200125_215201.geojson
303	100.0		smide_163		ZH256147	smide	50.0	20.0	8.574872	47.372132	2020-01-25 21:51:20	20200125_215201.geojson
304	91.0		smide_112		ZH263530	smide	45.0	20.0	8.556105	47.41062	2020-01-25 21:51:20	20200125_215201.geojson
305	61.0		smide_122		ZH253850	smide	30.0	20.0	8.560095	47.406716	2020-01-25 21:51:20	20200125_215201.geojson
306	76.0		smide_38		ZH253851	smide	38.0	20.0	8.55106	47.389135	2020-01-25 21:51:20	20200125_215201.geojson
307	90.0		smide_18		ZH253859	smide	45.0	17.0	8.559251	47.406	2020-01-25 21:51:20	20200125_215201.geojson
308	88.0		smide_12		ZH253685	smide	44.0	17.0	8.549703	47.401832	2020-01-25 21:51:20	20200125_215201.geojson
309	72.0		smide_192		ZH253706	smide	36.0	20.0	8.564526	47.3674	2020-01-25 21:51:20	20200125_215201.geojson
310	46.0		smide_39		ZH253714	smide	23.0	20.0	8.554314	47.417832	2020-01-25 21:51:20	20200125_215201.geojson
311	71.0		smide_5		ZH261443	smide	35.0	20.0	8.557821	47.352731	2020-01-25 21:51:20	20200125_215201.geojson
312	67.0		smide_85		ZH253729	smide	33.0	17.0	8.522358	47.36564	2020-01-25 21:51:20	20200125_215201.geojson
313	10.0		smide_29		ZH253723	smide	5.0	17.0	8.562779	47.40416	2020-01-25 21:51:20	20200125_215201.geojson
314	50.0		smide_46		ZH253843	smide	25.0	20.0	8.554881	47.377204	2020-01-25 21:51:20	20200125_215201.geojson
315	90.0		bird_1f672f49-5ae4-4a8f-ac80-87eb608dcdb4			bird			8.53655166666667	47.3663716666667	2020-01-25 21:51:19	20200125_215201.geojson
316	65.0		bird_5611c369-0c1b-43ab-8b03-ef28e6b1069c			bird			8.51788166666667	47.3917266666667	2020-01-25 21:51:19	20200125_215201.geojson
317	54.0		bird_ad6e1878-7ff8-459e-8fdc-cad35de15f9d			bird			8.549905	47.3845183333333	2020-01-25 21:51:19	20200125_215201.geojson
318	65.0		bird_d9dbd0eb-63b6-4992-8000-86c8c0f50090			bird			8.515205	47.369945	2020-01-25 21:51:19	20200125_215201.geojson
319	65.0		bird_a8e17aff-57c8-4393-b6c3-4a387398179b			bird			8.51183666666667	47.3729216666667	2020-01-25 21:51:19	20200125_215201.geojson
320	90.0		bird_d7a769d2-fd00-40db-8a84-aca5b77e19e7			bird			8.52780833333333	47.3940666666667	2020-01-25 21:51:19	20200125_215201.geojson
321	29.0		bird_323468ef-ffa9-4d52-b889-5821e0abdd31			bird			8.52931	47.3939133333333	2020-01-25 21:51:19	20200125_215201.geojson
322	88.0		bird_4871bd85-aed1-4e64-b99f-8b6c3a2c843b			bird			8.53082166666667	47.3661916666667	2020-01-25 21:51:19	20200125_215201.geojson
323	81.0		bird_683ec623-800c-43c2-b4bc-58d83431fbdc			bird			8.50999666666667	47.37735	2020-01-25 21:51:19	20200125_215201.geojson
324	99.0		bird_a01973b2-114a-47b4-8abe-5e7c607a1219			bird			8.50984166666667	47.37835	2020-01-25 21:51:19	20200125_215201.geojson
325	100.0		bird_9a677452-39d8-41ad-877a-3e52d65e48fc			bird			8.50986	47.3782733333333	2020-01-25 21:51:19	20200125_215201.geojson
326	88.0		bird_86b75fe3-564f-4e96-abd8-392d55060f67			bird			8.51704666666667	47.39056	2020-01-25 21:51:19	20200125_215201.geojson
327	70.0		bird_ea7e2620-b8a0-4437-a007-3b8d7dc4a0f0			bird			8.510355	47.3767616666667	2020-01-25 21:51:19	20200125_215201.geojson
328	62.0		bird_51e8ba30-d0d3-43d5-9180-3009c19338ba			bird			8.52660666666667	47.3934966666667	2020-01-25 21:51:19	20200125_215201.geojson
329	43.0		bird_efa1b072-dd27-48a6-86a6-647253e97036			bird			8.55003	47.3814733333333	2020-01-25 21:51:19	20200125_215201.geojson
330	36.0		bird_b4ee4fa8-342f-4146-a68c-3f7a498816de			bird			8.51333666666667	47.3724333333333	2020-01-25 21:51:19	20200125_215201.geojson
331	46.0		bird_379d9e96-b03c-4511-8799-3bce6f504a5d			bird			8.510135	47.3801616666667	2020-01-25 21:51:19	20200125_215201.geojson
332	51.0		bird_4e551fad-4e88-4e1f-8ae9-07e5cd93f819			bird			8.51029166666667	47.37836	2020-01-25 21:51:19	20200125_215201.geojson
333	18.0		bird_b83fbdde-7d04-40e8-af35-14091ed54c7c			bird			8.53326666666667	47.366745	2020-01-25 21:51:19	20200125_215201.geojson
334	21.0		bird_1e17a3cc-7414-460d-9cc9-0f4a49721ea2			bird			8.543265	47.3701483333333	2020-01-25 21:51:19	20200125_215201.geojson
335	100.0		bird_a9ff1191-ef5b-4284-80d9-125c690c219f			bird			8.51053	47.3781583333333	2020-01-25 21:51:19	20200125_215201.geojson
336	33.0		bird_f59465e4-e24e-4a2f-865a-bbed57de7f37			bird			8.51313	47.3867916666667	2020-01-25 21:51:19	20200125_215201.geojson
337	11.0		bird_5c8d9973-2ca8-42bd-997a-3308eecc160f			bird			8.51323	47.3868333333333	2020-01-25 21:51:19	20200125_215201.geojson
338	98.0		bird_e3458e73-8f3b-41d7-92da-1d4b005f2ee6			bird			8.51062833333333	47.3782916666667	2020-01-25 21:51:19	20200125_215201.geojson
339	100.0		bird_7b2621af-6f8a-46f0-b105-83bbaf9a7452			bird			8.51068	47.3781316666667	2020-01-25 21:51:19	20200125_215201.geojson
340	10.0		bird_dd0e3169-ef3c-4f98-8742-6771f0a3a624			bird			8.52813166666667	47.3668516666667	2020-01-25 21:51:19	20200125_215201.geojson
341	75.0		bird_e023f507-609b-4b46-90f0-322f7e9597f8			bird			8.51379	47.3873483333333	2020-01-25 21:51:19	20200125_215201.geojson
342	66.0		bird_017c3dfb-1ae0-4118-b81c-2e01ad560987			bird			8.51962333333333	47.3688433333333	2020-01-25 21:51:19	20200125_215201.geojson
343	30.0		bird_9a091c59-af0e-42de-94a5-2e2959d6bd25			bird			8.51536333333333	47.3714566666667	2020-01-25 21:51:19	20200125_215201.geojson
344	18.0		bird_3a166c3b-5359-41d0-b451-10843d03c23e			bird			8.54060333333333	47.369075	2020-01-25 21:51:19	20200125_215201.geojson
345	24.0		bird_b88778a3-a45e-43dd-a611-1b56ec455b06			bird			8.54196	47.3697733333333	2020-01-25 21:51:19	20200125_215201.geojson
346	45.0		bird_97439f27-b28f-4fa2-ad1e-26d1c9f2e0c2			bird			8.52459333333333	47.392285	2020-01-25 21:51:19	20200125_215201.geojson
347	76.0		bird_17683940-c671-490f-81f3-4e2dc1d94777			bird			8.51364333333333	47.3737716666667	2020-01-25 21:51:19	20200125_215201.geojson
348	74.0		bird_204b365c-fb87-48db-87f1-0250258a3889			bird			8.51159	47.3776366666667	2020-01-25 21:51:19	20200125_215201.geojson
349	21.0		bird_f36f83a3-d00a-403b-84c6-157cc3e914d4			bird			8.51527	47.3723266666667	2020-01-25 21:51:19	20200125_215201.geojson
350	96.0		bird_54a23fc3-dabc-46c3-a83a-a134135dc4be			bird			8.53734166666667	47.3684533333333	2020-01-25 21:51:19	20200125_215201.geojson
351	61.0		bird_38bae634-dc1a-4ce1-9db1-f6b74efd05c0			bird			8.544215	47.3721233333333	2020-01-25 21:51:19	20200125_215201.geojson
352	37.0		bird_0704547e-4a58-499a-937d-42f1fa7b0b60			bird			8.51191666666667	47.378055	2020-01-25 21:51:19	20200125_215201.geojson
353	25.0		bird_e4dde5b3-87ce-4fdf-98cb-a8c66dee25a8			bird			8.52187166666667	47.39111	2020-01-25 21:51:19	20200125_215201.geojson
354	53.0		bird_2648a016-0af4-4565-b743-d479f871b1a9			bird			8.51777	47.3707916666667	2020-01-25 21:51:19	20200125_215201.geojson
355	64.0		bird_88965b7a-1755-4372-920d-b816135a9f68			bird			8.542815	47.3712	2020-01-25 21:51:19	20200125_215201.geojson
356	62.0		bird_c3db1b4c-0634-4555-8928-77df8c115e3d			bird			8.514	47.3741566666667	2020-01-25 21:51:19	20200125_215201.geojson
357	37.0		bird_e5f9566f-0b9a-4706-b3a6-8fa1e0370ec1			bird			8.52648666666667	47.3920216666667	2020-01-25 21:51:19	20200125_215201.geojson
358	53.0		bird_4d9c2d2f-b230-4032-a885-7e99075704cf			bird			8.544815	47.3731583333333	2020-01-25 21:51:19	20200125_215201.geojson
359	74.0		bird_944187ab-6c38-4d87-b1da-5020e95dd864			bird			8.51799	47.3710133333333	2020-01-25 21:51:19	20200125_215201.geojson
360	83.0		bird_1535b90f-c69e-4e77-b3b9-96e9c0d9ba56			bird			8.512245	47.3801616666667	2020-01-25 21:51:19	20200125_215201.geojson
361	61.0		bird_d01fa599-aa72-428b-ab5a-e4712401bb67			bird			8.517955	47.3887833333333	2020-01-25 21:51:19	20200125_215201.geojson
362	100.0		bird_ca645e27-225a-4887-83a0-190ee3d9a7d4			bird			8.53828166666667	47.3694383333333	2020-01-25 21:51:19	20200125_215201.geojson
363	30.0		bird_271b86c0-4636-455b-a1af-c5aa62be6721			bird			8.54733333333333	47.3820683333333	2020-01-25 21:51:19	20200125_215201.geojson
364	94.0		bird_2cf5700a-2693-408b-9bd6-6fae2ca9b5c8			bird			8.5142	47.3748583333333	2020-01-25 21:51:19	20200125_215201.geojson
365	78.0		bird_ac9cfd31-73df-4190-aa1e-89f6c6c1aa8f			bird			8.51309333333333	47.37751	2020-01-25 21:51:19	20200125_215201.geojson
366	75.0		bird_379df6bb-1367-4b91-b588-0571093927cd			bird			8.51507166666667	47.3741066666667	2020-01-25 21:51:19	20200125_215201.geojson
367	20.0		bird_592da14f-0d3b-4c1b-82e3-4d8f3de40bfc			bird			8.54517166666667	47.38541	2020-01-25 21:51:19	20200125_215201.geojson
368	27.0		bird_e835e0e5-bb09-4e4d-b8bf-37526770a78a			bird			8.54479833333333	47.3742033333333	2020-01-25 21:51:19	20200125_215201.geojson
369	33.0		bird_6d550503-da36-42d1-9b89-995315082b02			bird			8.53921666666667	47.3897216666667	2020-01-25 21:51:19	20200125_215201.geojson
370	91.0		bird_eff0348b-1ed0-4706-96b7-d170a4b2ce40			bird			8.54391	47.3733133333333	2020-01-25 21:51:19	20200125_215201.geojson
371	21.0		bird_111ba1c6-97df-4d33-97db-c34eb1f36f4c			bird			8.5438	47.3732333333333	2020-01-25 21:51:19	20200125_215201.geojson
372	74.0		bird_127a2af6-6f51-4be6-8bac-4692d2d01d51			bird			8.521805	47.3700516666667	2020-01-25 21:51:19	20200125_215201.geojson
373	61.0		bird_52fb76b1-505b-48a2-ba00-a12c6aa787f9			bird			8.53614166666667	47.3905983333333	2020-01-25 21:51:19	20200125_215201.geojson
374	63.0		bird_e780f552-930d-4d19-b243-48758cc24005			bird			8.522085	47.3900383333333	2020-01-25 21:51:19	20200125_215201.geojson
375	66.0		bird_88ac5c55-cc9e-4273-ab4c-4de376e5ff19			bird			8.51618333333333	47.3863683333333	2020-01-25 21:51:19	20200125_215201.geojson
376	38.0		bird_80f3f1e9-098a-4b69-a13e-30ed9361737b			bird			8.54371666666667	47.373535	2020-01-25 21:51:19	20200125_215201.geojson
377	18.0		bird_94545041-8c09-473b-b033-476b877965f2			bird			8.53701333333333	47.3902166666667	2020-01-25 21:51:19	20200125_215201.geojson
378	80.0		bird_bfe63445-dd37-4c8b-91e5-7e09921dee38			bird			8.51371	47.3781783333333	2020-01-25 21:51:19	20200125_215201.geojson
379	71.0		bird_3bb7561b-3959-4dc2-adda-f3caf222bfda			bird			8.51669166666667	47.386615	2020-01-25 21:51:19	20200125_215201.geojson
380	31.0		bird_f77d352e-e27c-4578-a23c-4fe55692db1e			bird			8.51537	47.37487	2020-01-25 21:51:19	20200125_215201.geojson
381	37.0		bird_0e1b9ad8-746e-4ee6-9882-12e7364c9923			bird			8.51385833333333	47.3818366666667	2020-01-25 21:51:19	20200125_215201.geojson
382	46.0		bird_1d61c009-acc8-4f85-af47-aba7dd6b4d69			bird			8.52142	47.3894316666667	2020-01-25 21:51:19	20200125_215201.geojson
383	21.0		bird_0654ac44-0ccd-4445-a4f9-0bafff4e2cd8			bird			8.52394833333333	47.3697166666667	2020-01-25 21:51:19	20200125_215201.geojson
384	64.0		bird_115e12b9-a97b-4881-ac92-fa5d110b66bf			bird			8.53675	47.3699333333333	2020-01-25 21:51:19	20200125_215201.geojson
385	99.0		bird_f5716720-98f4-4697-b8fe-d8738287f078			bird			8.52003833333333	47.3887483333333	2020-01-25 21:51:19	20200125_215201.geojson
386	70.0		bird_4e1c91c8-3150-4a43-a073-f94745761cd4			bird			8.514625	47.3765183333333	2020-01-25 21:51:19	20200125_215201.geojson
387	13.0		bird_a08715ba-cfe1-4838-aa46-1acaefbee90e			bird			8.54439	47.374965	2020-01-25 21:51:19	20200125_215201.geojson
388	99.0		bird_d09685ab-9942-42ad-9327-e5b96b5d4747			bird			8.52001666666667	47.3886116666667	2020-01-25 21:51:19	20200125_215201.geojson
389	54.0		bird_7db39730-9f44-48da-8d11-c6784848b84b			bird			8.54609833333333	47.380485	2020-01-25 21:51:19	20200125_215201.geojson
390	39.0		bird_94872a77-c274-4b5e-ae83-279710bab1b0			bird			8.51720166666667	47.38654	2020-01-25 21:51:19	20200125_215201.geojson
391	58.0		bird_35bc14a2-fc2f-45ce-8276-d6f8d425d065			bird			8.52217833333333	47.3894733333333	2020-01-25 21:51:19	20200125_215201.geojson
392	47.0		bird_b2757927-7de7-400f-930f-4f7330a0b528			bird			8.51477666666667	47.3767316666667	2020-01-25 21:51:19	20200125_215201.geojson
393	55.0		bird_caca001a-ca61-496d-b8e1-d6c6ef7f3d49			bird			8.54286166666667	47.3735916666667	2020-01-25 21:51:19	20200125_215201.geojson
394	73.0		bird_76e481d4-0dbe-4bcb-bc53-d01ddd1a2a27			bird			8.51721	47.3863833333333	2020-01-25 21:51:19	20200125_215201.geojson
395	39.0		bird_54a2d82e-6dc5-4359-ba53-c66a879735d5			bird			8.54081666666667	47.37215	2020-01-25 21:51:19	20200125_215201.geojson
396	71.0		bird_e1ab7e48-e7dd-4f75-a0e4-ec3c4fe38775			bird			8.540835	47.3721616666667	2020-01-25 21:51:19	20200125_215201.geojson
397	90.0		bird_f458b775-e25e-45aa-9011-29267cbee210			bird			8.52205666666667	47.3892783333333	2020-01-25 21:51:19	20200125_215201.geojson
398	69.0		bird_e95ff8a0-8b80-4d43-a8d9-03a14bc47b79			bird			8.54488166666667	47.3763883333333	2020-01-25 21:51:19	20200125_215201.geojson
399	21.0		bird_d89deffc-72d2-4e5b-9dc9-98c534984a93			bird			8.53729666666667	47.3893166666667	2020-01-25 21:51:19	20200125_215201.geojson
400	24.0		bird_5f3f52ce-51ef-43c1-9a7b-0a6e967ff1bd			bird			8.52655333333333	47.36972	2020-01-25 21:51:19	20200125_215201.geojson
401	99.0		bird_4228fcfc-1b6d-4b1b-9974-09b2bdf46712			bird			8.520325	47.3882216666667	2020-01-25 21:51:19	20200125_215201.geojson
402	17.0		bird_8231dbaf-6e70-48fc-abcf-420b64df94a8			bird			8.53948333333333	47.3882683333333	2020-01-25 21:51:19	20200125_215201.geojson
403	22.0		bird_966ff40e-eb61-4dcb-ae35-401fc809216d			bird			8.52506333333333	47.3700866666667	2020-01-25 21:51:19	20200125_215201.geojson
404	98.0		bird_6d7589ba-497d-497d-a3e9-79ab36daaea3			bird			8.52031166666667	47.38805	2020-01-25 21:51:19	20200125_215201.geojson
405	96.0		bird_31c5835b-db4b-4414-84c3-dfecc770eb93			bird			8.52032333333333	47.38805	2020-01-25 21:51:19	20200125_215201.geojson
406	35.0		bird_6936cc04-7e04-4e83-a441-f7468036079b			bird			8.51913333333333	47.38715	2020-01-25 21:51:19	20200125_215201.geojson
407	89.0		bird_0af5e124-9387-4250-a48f-a4ca9018ef99			bird			8.51940666666667	47.387325	2020-01-25 21:51:19	20200125_215201.geojson
408	93.0		bird_38489782-9aec-4fe7-a2e2-b35be2dec098			bird			8.51773833333333	47.3860133333333	2020-01-25 21:51:19	20200125_215201.geojson
409	74.0		bird_7a505379-9fd8-44ae-95d2-beb9bb675247			bird			8.53522	47.370385	2020-01-25 21:51:19	20200125_215201.geojson
410	75.0		bird_49c7132b-2144-4ce1-94a1-d8af3354376a			bird			8.522105	47.3887016666667	2020-01-25 21:51:19	20200125_215201.geojson
411	13.0		bird_1dba2a90-acbc-4cb5-8949-3f100ef86595			bird			8.54467166666667	47.382305	2020-01-25 21:51:19	20200125_215201.geojson
412	71.0		bird_76d516a7-ec8d-4367-9a1a-595b9ef4966a			bird			8.540615	47.38723	2020-01-25 21:51:19	20200125_215201.geojson
413	97.0		bird_951badb6-36e2-42b9-84ff-c1e3003082b9			bird			8.51813333333333	47.3861383333333	2020-01-25 21:51:19	20200125_215201.geojson
414	73.0		bird_eecb09b5-01ae-4f98-8385-d07e9772a287			bird			8.5215	47.3882366666667	2020-01-25 21:51:19	20200125_215201.geojson
415	88.0		bird_617b041d-3922-49d1-8ec3-f3a00361b1ee			bird			8.54389666666667	47.3765183333333	2020-01-25 21:51:19	20200125_215201.geojson
416	74.0		bird_bd8c70e0-288b-4172-a998-2bf84c14593b			bird			8.51809166666667	47.3740883333333	2020-01-25 21:51:19	20200125_215201.geojson
417	99.0		bird_63649de7-0d09-4da3-b5ae-bc490ddeb9a0			bird			8.523205	47.3711466666667	2020-01-25 21:51:19	20200125_215201.geojson
418	100.0		bird_9f36f4e4-fd46-4f66-aa52-2b460f313bd4			bird			8.54364666666667	47.37624	2020-01-25 21:51:19	20200125_215201.geojson
419	100.0		bird_0d00532f-03d8-488e-a934-7829ac2b94d6			bird			8.51680666666667	47.375565	2020-01-25 21:51:19	20200125_215201.geojson
420	98.0		bird_91ecb3e4-bc82-47ce-a502-fb574da3856c			bird			8.54362166666667	47.3762433333333	2020-01-25 21:51:19	20200125_215201.geojson
421	88.0		bird_90d08205-e279-48bf-ad6b-d351f0d43f02			bird			8.53978	47.3725666666667	2020-01-25 21:51:19	20200125_215201.geojson
422	100.0		bird_da6808a0-59b7-4ca0-ba59-3c0691f0198c			bird			8.51671666666667	47.375775	2020-01-25 21:51:19	20200125_215201.geojson
423	92.0		bird_e9265979-d981-45b0-8d7b-a769b202484b			bird			8.51673833333333	47.3757633333333	2020-01-25 21:51:19	20200125_215201.geojson
424	74.0		bird_07fe46aa-ffdc-4e9e-8d95-09f49c9e1e74			bird			8.52245666666667	47.3884733333333	2020-01-25 21:51:19	20200125_215201.geojson
425	98.0		bird_b75015be-00b8-43b7-a571-026e5a977916			bird			8.51765666666667	47.3852683333333	2020-01-25 21:51:19	20200125_215201.geojson
426	38.0		bird_1e8e1280-cda2-4c7e-bbc3-4f6f6188bcd0			bird			8.51590666666667	47.38248	2020-01-25 21:51:19	20200125_215201.geojson
427	26.0		bird_c81ffe6a-8393-4819-a071-611274eb3779			bird			8.51866333333333	47.38615	2020-01-25 21:51:19	20200125_215201.geojson
428	28.0		bird_56926520-73b5-4a37-aacd-0d21b4842d33			bird			8.52245	47.3716133333333	2020-01-25 21:51:19	20200125_215201.geojson
429	24.0		bird_b39d174a-19b2-4039-8b21-f9bc77159ece			bird			8.51604833333333	47.3826516666667	2020-01-25 21:51:19	20200125_215201.geojson
430	44.0		bird_0f798bd2-8b03-443c-a017-0d86903d44f4			bird			8.52268833333333	47.3715366666667	2020-01-25 21:51:19	20200125_215201.geojson
431	40.0		bird_e6df98a9-985c-4cbd-aa9c-fe3a6467136f			bird			8.51726666666667	47.3754466666667	2020-01-25 21:51:19	20200125_215201.geojson
432	73.0		bird_2e919664-8ed5-4e85-adde-1c020b0bc03c			bird			8.51597666666667	47.378865	2020-01-25 21:51:19	20200125_215201.geojson
433	91.0		bird_c9720fad-be5b-4d18-a2fa-bc3d0d856e04			bird			8.51862	47.385495	2020-01-25 21:51:19	20200125_215201.geojson
434	70.0		bird_663be6c8-72ab-481e-b814-a2f82f031d98			bird			8.54228333333333	47.3844416666667	2020-01-25 21:51:19	20200125_215201.geojson
435	63.0		bird_8ab2d808-4452-454e-8a37-4947fed1ef43			bird			8.519955	47.3735583333333	2020-01-25 21:51:19	20200125_215201.geojson
436	92.0		bird_6e06d253-7222-482f-8f20-330122421884			bird			8.519225	47.3858683333333	2020-01-25 21:51:19	20200125_215201.geojson
437	98.0		bird_0a9dff19-b41a-4e2b-acd6-78eb951f82e1			bird			8.51937666666667	47.3859666666667	2020-01-25 21:51:19	20200125_215201.geojson
438	97.0		bird_a54cf6b5-5213-4758-8118-b9d493897866			bird			8.51923666666667	47.3858333333333	2020-01-25 21:51:19	20200125_215201.geojson
439	75.0		bird_5555f8b6-5c36-460e-b65e-4324e19cb64d			bird			8.51806666666667	47.375355	2020-01-25 21:51:19	20200125_215201.geojson
440	82.0		bird_f4836c52-43b3-4393-9905-787e7536e6ab			bird			8.52322666666667	47.371895	2020-01-25 21:51:19	20200125_215201.geojson
441	25.0		bird_bc566238-8c62-44c8-b068-f4ad91959d12			bird			8.52480166666667	47.37162	2020-01-25 21:51:19	20200125_215201.geojson
442	29.0		bird_55a13891-ebf6-4dd9-a351-dcc07a6a658a			bird			8.517125	47.3775633333333	2020-01-25 21:51:19	20200125_215201.geojson
443	64.0		bird_65b04c70-8cd0-404a-90ee-d5efce40841e			bird			8.52812166666667	47.3712316666667	2020-01-25 21:51:19	20200125_215201.geojson
444	96.0		bird_b3c0f805-e22f-4abd-a79b-8eec334d0640			bird			8.52439	47.3878216666667	2020-01-25 21:51:19	20200125_215201.geojson
445	92.0		bird_5bbfc236-f483-423b-ac55-acf838ca54e3			bird			8.53428833333333	47.388035	2020-01-25 21:51:19	20200125_215201.geojson
446	82.0		bird_ac317a5f-5b86-44da-9b79-8770ea2b68c9			bird			8.53683	47.3728783333333	2020-01-25 21:51:19	20200125_215201.geojson
447	11.0		bird_3ca1c68d-734e-4659-a692-26a1136c0cd7			bird			8.520715	47.385525	2020-01-25 21:51:19	20200125_215201.geojson
448	46.0		bird_9c7a7b85-dadf-49c8-9d28-075ec04aeb37			bird			8.51776833333333	47.3811416666667	2020-01-25 21:51:19	20200125_215201.geojson
449	29.0		bird_fa900040-d38f-4f74-ba98-045257e47233			bird			8.53678833333333	47.3731	2020-01-25 21:51:19	20200125_215201.geojson
450	48.0		bird_3585ee86-e7c2-464a-ac1b-5956a549c338			bird			8.538845	47.3856733333333	2020-01-25 21:51:19	20200125_215201.geojson
451	20.0		bird_bc5d1957-eb0e-4464-9b47-b4b74d48fc3b			bird			8.53454333333333	47.3723566666667	2020-01-25 21:51:19	20200125_215201.geojson
452	39.0		bird_8496a95c-11aa-4744-9b91-31c4295a4364			bird			8.520945	47.3745466666667	2020-01-25 21:51:19	20200125_215201.geojson
453	31.0		bird_18f98824-965f-4f1f-ac85-e32bcd021c1d			bird			8.53705666666667	47.3735	2020-01-25 21:51:19	20200125_215201.geojson
454	26.0		bird_69ea2e05-ad25-4311-b8d7-1401251dc2dc			bird			8.54070833333333	47.3764766666667	2020-01-25 21:51:19	20200125_215201.geojson
455	33.0		bird_c9df5b18-b1c1-4c7f-a7b3-611a6d1c2008			bird			8.54140833333333	47.3820983333333	2020-01-25 21:51:19	20200125_215201.geojson
456	44.0		bird_82e01386-5572-4878-bc6b-4f180cec59c9			bird			8.51963833333333	47.37653	2020-01-25 21:51:19	20200125_215201.geojson
457	42.0		bird_3a097be1-239f-48b7-8977-6a11eb8a9fc0			bird			8.53219166666667	47.3723183333333	2020-01-25 21:51:19	20200125_215201.geojson
458	71.0		bird_9cc48e23-70cd-4cd2-9dcc-985dde37c252			bird			8.541195	47.3783333333333	2020-01-25 21:51:19	20200125_215201.geojson
459	69.0		bird_11fb19f9-b8e0-4390-b31e-53d60e35432e			bird			8.53675666666667	47.373745	2020-01-25 21:51:19	20200125_215201.geojson
460	72.0		bird_c9b276e1-c353-40c0-b1e4-c40fb69664ae			bird			8.52268666666667	47.37426	2020-01-25 21:51:19	20200125_215201.geojson
461	22.0		bird_f012698d-ff10-47be-a5e4-20dd674b0f88			bird			8.51947833333333	47.3787616666667	2020-01-25 21:51:19	20200125_215201.geojson
462	57.0		bird_31775b61-864a-453e-a9d5-36c23f82de63			bird			8.53531333333333	47.373925	2020-01-25 21:51:19	20200125_215201.geojson
463	98.0		bird_8efb14a7-1124-4132-8f94-a9c1e0a22dcc			bird			8.53841833333333	47.376015	2020-01-25 21:51:19	20200125_215201.geojson
464	91.0		bird_dac0f7de-147c-4a8c-a0c3-eabee1b4b28c			bird			8.538415	47.37603	2020-01-25 21:51:19	20200125_215201.geojson
465	88.0		bird_d4660c10-d6f6-4f77-9e70-1d3ac91a5647			bird			8.53914666666667	47.3772016666667	2020-01-25 21:51:19	20200125_215201.geojson
466	51.0		bird_7bb642f5-166a-44ad-ad52-aa47929a5101			bird			8.52064666666667	47.377605	2020-01-25 21:51:19	20200125_215201.geojson
467	20.0		bird_da150727-68da-48af-a601-426b64decaa5			bird			8.53667333333333	47.3751683333333	2020-01-25 21:51:19	20200125_215201.geojson
468	75.0		bird_4dddce3c-c353-423e-a5f6-67589bf72d66			bird			8.52876166666667	47.3735116666667	2020-01-25 21:51:19	20200125_215201.geojson
469	75.0		bird_a9972745-f07b-4568-ae9a-87a79193eb0e			bird			8.53095666666667	47.3735283333333	2020-01-25 21:51:19	20200125_215201.geojson
470	62.0		bird_ef2ef916-a29f-44fb-83f3-cf465b98d61d			bird			8.53874666666667	47.377335	2020-01-25 21:51:19	20200125_215201.geojson
471	10.0		bird_eead9c2c-c968-482d-a3f7-c1509e59b515			bird			8.527825	47.3862616666667	2020-01-25 21:51:19	20200125_215201.geojson
472	39.0		bird_8924b8b2-dc6a-4a67-81bf-dcc7c4ae1eb2			bird			8.52062333333333	47.3791233333333	2020-01-25 21:51:19	20200125_215201.geojson
473	26.0		bird_06d4674e-fd28-4a41-add6-f453d57c45e8			bird			8.52096	47.3781466666667	2020-01-25 21:51:19	20200125_215201.geojson
474	43.0		bird_8e3bea06-92be-431d-b38f-a500a2aca91c			bird			8.53829	47.3769566666667	2020-01-25 21:51:19	20200125_215201.geojson
475	91.0		bird_da0a4d45-053c-4e14-8570-d4d02fad0bd6			bird			8.5382	47.3768766666667	2020-01-25 21:51:19	20200125_215201.geojson
476	73.0		bird_6f7570c7-6e4a-4a1b-86cd-afd0ba752e22			bird			8.52478333333333	47.3748783333333	2020-01-25 21:51:19	20200125_215201.geojson
477	69.0		bird_95b68573-5bbc-40b7-89d1-e675c665eebf			bird			8.52679833333333	47.3856283333333	2020-01-25 21:51:19	20200125_215201.geojson
478	72.0		bird_36caba3f-5209-4070-900d-f40a42341fdc			bird			8.52665333333333	47.3855783333333	2020-01-25 21:51:19	20200125_215201.geojson
479	96.0		bird_f0da4e57-cb61-432f-87a5-b30592a8fc26			bird			8.53438166666667	47.374805	2020-01-25 21:51:19	20200125_215201.geojson
480	93.0		bird_5e11b706-88cc-449d-be0c-b4d71b885d1c			bird			8.53437166666667	47.3748133333333	2020-01-25 21:51:19	20200125_215201.geojson
481	40.0		bird_1b201e57-062f-4b5b-96ce-dc37a07da878			bird			8.5367	47.3835683333333	2020-01-25 21:51:19	20200125_215201.geojson
482	96.0		bird_6daedd3b-40fc-421c-981c-76da8bf9d5bd			bird			8.53773833333333	47.377815	2020-01-25 21:51:19	20200125_215201.geojson
483	72.0		bird_d6a8bd64-814f-4ad6-b837-f46e329c17ad			bird			8.53093166666667	47.3744666666667	2020-01-25 21:51:19	20200125_215201.geojson
484	96.0		bird_58a03d4c-91bb-442b-ba6e-5745d112683c			bird			8.53740666666667	47.3778683333333	2020-01-25 21:51:19	20200125_215201.geojson
485	98.0		bird_b8058026-899a-420c-af7f-e5f57d97b225			bird			8.53775	47.3796316666667	2020-01-25 21:51:19	20200125_215201.geojson
486	83.0		bird_67b52a24-e058-4407-ad18-43542d7e6d63			bird			8.53769833333333	47.3796416666667	2020-01-25 21:51:19	20200125_215201.geojson
487	34.0		bird_404a149d-3d95-402d-999c-b2d5700507f9			bird			8.52258666666667	47.37864	2020-01-25 21:51:19	20200125_215201.geojson
488	49.0		bird_508f1998-e877-41e2-a612-be7b70e0cc92			bird			8.52256	47.3790583333333	2020-01-25 21:51:19	20200125_215201.geojson
489	74.0		bird_837a5065-baef-405d-b231-38ceb95c3757			bird			8.522435	47.3801116666667	2020-01-25 21:51:19	20200125_215201.geojson
490	49.0		bird_8b41bdba-f277-4cd7-b51d-d35bbb1f7f60			bird			8.53138333333333	47.384945	2020-01-25 21:51:19	20200125_215201.geojson
491	69.0		bird_a5273cee-d8ee-43c2-b64c-8dfbf48532da			bird			8.5368	47.3779716666667	2020-01-25 21:51:19	20200125_215201.geojson
492	98.0		bird_11bc9108-d6b6-4556-b11e-71b1411e1156			bird			8.53736833333334	47.3795316666667	2020-01-25 21:51:19	20200125_215201.geojson
493	48.0		bird_7b4001cf-08ab-4980-886e-670cf6c379fc			bird			8.52281833333333	47.3788266666667	2020-01-25 21:51:19	20200125_215201.geojson
494	71.0		bird_29ce5263-9700-4852-b548-d462a57bbb72			bird			8.53159666666667	47.3848033333333	2020-01-25 21:51:19	20200125_215201.geojson
495	29.0		bird_b3006b8c-1066-4b9b-9f3a-e0eae7768991			bird			8.53349166666667	47.384285	2020-01-25 21:51:19	20200125_215201.geojson
496	94.0		bird_090dfa3c-bcea-4870-8ee1-14f9251e4276			bird			8.53122166666667	47.384815	2020-01-25 21:51:19	20200125_215201.geojson
497	69.0		bird_73548a8b-ea8d-4acd-9f96-c2828ad42080			bird			8.53718	47.3800316666667	2020-01-25 21:51:19	20200125_215201.geojson
498	48.0		bird_8de68b03-36d5-4997-922d-4333096c0550			bird			8.52310666666667	47.37878	2020-01-25 21:51:19	20200125_215201.geojson
499	98.0		bird_ee2886f6-d003-4a63-9baa-0dbdd11ff3e5			bird			8.53648166666667	47.3780366666667	2020-01-25 21:51:19	20200125_215201.geojson
500	73.0		bird_b583f4b6-d94e-441f-ab8c-80621e40e74c			bird			8.53616833333333	47.37762	2020-01-25 21:51:19	20200125_215201.geojson
501	98.0		bird_1f83436c-598d-4537-85bb-20b504a7057b			bird			8.52569166666667	47.3762016666667	2020-01-25 21:51:19	20200125_215201.geojson
502	40.0		bird_4c0d0e90-9bd4-47f1-aadf-f199a900c1f3			bird			8.53569166666667	47.377255	2020-01-25 21:51:19	20200125_215201.geojson
503	18.0		bird_7a0bb055-fcf5-4173-9b50-43724cce9e24			bird			8.53598666666667	47.37777	2020-01-25 21:51:19	20200125_215201.geojson
504	11.0		bird_e9178141-75cc-48d0-8699-12d1d282784a			bird			8.53677666666667	47.3797	2020-01-25 21:51:19	20200125_215201.geojson
505	70.0		bird_10f9ae49-bea1-4e38-a654-8231b6f68406			bird			8.53174333333333	47.38443	2020-01-25 21:51:19	20200125_215201.geojson
506	72.0		bird_f85a07e8-d4f0-4931-a76f-61b58076d745			bird			8.52861666666667	47.3755983333333	2020-01-25 21:51:19	20200125_215201.geojson
507	83.0		bird_18236796-bfd5-4749-af2d-fb71a6abebf3			bird			8.53195833333333	47.3842966666667	2020-01-25 21:51:19	20200125_215201.geojson
508	73.0		bird_34a0fecb-37b1-4d79-90f4-37ab1f581f8f			bird			8.53592833333333	47.3780983333333	2020-01-25 21:51:19	20200125_215201.geojson
509	72.0		bird_7807ad88-a77f-4929-bd53-8259fe636beb			bird			8.53583166666667	47.3779833333333	2020-01-25 21:51:19	20200125_215201.geojson
510	89.0		bird_90c6dcbd-7882-4304-bf31-1bbe703db19d			bird			8.52770166666667	47.38414	2020-01-25 21:51:19	20200125_215201.geojson
511	96.0		bird_566566fd-4d16-49f9-a617-399bde114634			bird			8.52840666666667	47.3842283333333	2020-01-25 21:51:19	20200125_215201.geojson
512	20.0		bird_4d8444c8-5e5f-4f3e-8ea8-26d58fc91b21			bird			8.53415666666667	47.3767733333333	2020-01-25 21:51:19	20200125_215201.geojson
513	98.0		bird_7f130ebd-2212-4dcb-bd6e-65803a159d32			bird			8.53563666666667	47.3781616666667	2020-01-25 21:51:19	20200125_215201.geojson
514	96.0		bird_7df062a4-2b73-4b22-93dc-c1cf6d218bc7			bird			8.52868666666667	47.384075	2020-01-25 21:51:19	20200125_215201.geojson
515	61.0		bird_52bc92fb-8c3c-4eeb-b8b2-1bb71a0acdc8			bird			8.52869833333333	47.384045	2020-01-25 21:51:19	20200125_215201.geojson
516	78.0		bird_80bee71b-d47a-4140-a5a0-7d657928c001			bird			8.53287666666667	47.3836166666667	2020-01-25 21:51:19	20200125_215201.geojson
517	69.0		bird_2e53ed9a-591d-4216-919e-b97fbf7e297e			bird			8.52861833333333	47.38398	2020-01-25 21:51:19	20200125_215201.geojson
518	37.0		bird_d03e1d7b-d7dd-42ad-b39d-6a3d896124aa			bird			8.532985	47.3765483333333	2020-01-25 21:51:19	20200125_215201.geojson
519	69.0		bird_0239705e-509f-42f5-927f-cf52f4a73d6f			bird			8.52433666666667	47.3789516666667	2020-01-25 21:51:19	20200125_215201.geojson
520	79.0		bird_c6e5b62c-5376-4a36-982c-8e6d1617826d			bird			8.52625666666667	47.3772133333333	2020-01-25 21:51:19	20200125_215201.geojson
521	71.0		bird_89ab5537-e741-4da9-a870-cfc15eeaf70c			bird			8.526605	47.37703	2020-01-25 21:51:19	20200125_215201.geojson
522	42.0		bird_8640a3bc-0bd1-49ea-9329-5f41a1aab2aa			bird			8.52447833333333	47.379955	2020-01-25 21:51:19	20200125_215201.geojson
523	79.0		bird_9bfcf52e-be77-417d-853f-ee8ad1a33618			bird			8.526335	47.3772166666667	2020-01-25 21:51:19	20200125_215201.geojson
524	69.0		bird_435000e1-2f0d-43c2-8c18-b4e717d400d3			bird			8.52460166666667	47.3805166666667	2020-01-25 21:51:19	20200125_215201.geojson
525	100.0		bird_5f25b362-9d29-462b-b1e4-3a9649535e8f			bird			8.526425	47.3772966666667	2020-01-25 21:51:19	20200125_215201.geojson
526	99.0		bird_d5e97097-b935-4dc1-a370-5771403c1e4f			bird			8.526675	47.3771666666667	2020-01-25 21:51:19	20200125_215201.geojson
527	100.0		bird_9d6fcd43-81cc-451a-9155-37577404b9c7			bird			8.52667166666667	47.377235	2020-01-25 21:51:19	20200125_215201.geojson
528	28.0		bird_9f50f297-6e1f-4aca-b047-2bf72e42ab06			bird			8.52482666666667	47.37939	2020-01-25 21:51:19	20200125_215201.geojson
529	88.0		bird_b96084bd-c8c0-4157-8603-c7f2cab1c8a8			bird			8.52517333333333	47.3807183333333	2020-01-25 21:51:19	20200125_215201.geojson
530	94.0		bird_aac25873-38d1-42e4-a3c6-56dcc66664d7			bird			8.534225	47.3786083333333	2020-01-25 21:51:19	20200125_215201.geojson
531	17.0		bird_a7a4561d-529f-4315-9984-baba903e8f15			bird			8.52554333333333	47.3806833333333	2020-01-25 21:51:19	20200125_215201.geojson
532	64.0		bird_bc23df06-a434-4b92-98f0-2a5982d5e4ad			bird			8.52882333333333	47.3770333333333	2020-01-25 21:51:19	20200125_215201.geojson
533	79.0		bird_32aa5ff9-68f5-4a57-a1ad-45b69f193e1e			bird			8.52950333333333	47.3828133333333	2020-01-25 21:51:19	20200125_215201.geojson
534	80.0		bird_d7a04373-b5b0-4c5b-bfba-cdfec251b822			bird			8.52954166666667	47.3827966666667	2020-01-25 21:51:19	20200125_215201.geojson
535	74.0		bird_ff9ac86b-f06f-4a9b-86a5-45a49727b2a5			bird			8.52606833333333	47.3801766666667	2020-01-25 21:51:19	20200125_215201.geojson
536	96.0		bird_18e4461f-5049-4d06-a84e-d8cb5cb5112e			bird			8.529545	47.3826066666667	2020-01-25 21:51:19	20200125_215201.geojson
537	53.0		bird_d13ec4f5-b81a-433a-b512-475e248e7ee5			bird			8.53193833333333	47.38224	2020-01-25 21:51:19	20200125_215201.geojson
538	97.0		bird_ccc31565-9a9e-46d8-ae6b-56a5f1292d7e			bird			8.52950833333333	47.3825233333333	2020-01-25 21:51:19	20200125_215201.geojson
539	22.0		bird_88773f9e-2b27-43c5-a4fe-4438d30236fe			bird			8.52683666666667	47.3794016666667	2020-01-25 21:51:19	20200125_215201.geojson
540	36.0		bird_79a7886a-34ef-456e-a842-e950114f64c7			bird			8.53287333333333	47.3789366666667	2020-01-25 21:51:19	20200125_215201.geojson
541	96.0		bird_39f36948-c11a-494d-a904-aee8577065df			bird			8.53277666666667	47.3789516666667	2020-01-25 21:51:19	20200125_215201.geojson
542	89.0		bird_942e1b2b-f26e-418f-b4cc-4f284a911d62			bird			8.52973	47.3778683333333	2020-01-25 21:51:19	20200125_215201.geojson
543	100.0		bird_46e35f27-ef48-4a97-877d-21c7537c257f			bird			8.52906666666667	47.381935	2020-01-25 21:51:19	20200125_215201.geojson
544	99.0		bird_e5ed9bfd-bc07-4a13-9375-3018def45338			bird			8.52896833333333	47.3819083333333	2020-01-25 21:51:19	20200125_215201.geojson
545	99.0		bird_244e95ff-3b82-42c7-9985-0303dc95ef8e			bird			8.52905166666667	47.3818933333333	2020-01-25 21:51:19	20200125_215201.geojson
546	100.0		bird_de555b8a-1d86-4db7-bb18-b364d5c2126c			bird			8.52897666666667	47.38187	2020-01-25 21:51:19	20200125_215201.geojson
547	100.0		bird_4b40e12c-0660-4205-97e8-49861453c206			bird			8.52930166666667	47.3819166666667	2020-01-25 21:51:19	20200125_215201.geojson
548	99.0		bird_aa251f2f-4708-4e0f-b6f4-90e797ed0064			bird			8.52918	47.381885	2020-01-25 21:51:19	20200125_215201.geojson
549	99.0		bird_cd8b9f0f-0834-4d96-bc7c-145a55650b2f			bird			8.52921833333333	47.3818433333333	2020-01-25 21:51:19	20200125_215201.geojson
550	100.0		bird_c065f575-66e8-43ad-b372-f08f34e6f6da			bird			8.52913166666667	47.38181	2020-01-25 21:51:19	20200125_215201.geojson
551	81.0		bird_030cc2e4-e3bc-4806-acaa-6b1981899a00			bird			8.52795166666667	47.3787116666667	2020-01-25 21:51:19	20200125_215201.geojson
552	45.0		bird_305e3490-93ee-4523-a517-5f79c1a95fb6			bird			8.52859	47.3783683333333	2020-01-25 21:51:19	20200125_215201.geojson
553	88.0		bird_cb01d451-0415-4cf1-b408-180a27f7492f			bird			8.528585	47.3783833333333	2020-01-25 21:51:19	20200125_215201.geojson
554	99.0		bird_e27453fb-c13d-456b-9169-4e1c7ee3985e			bird			8.527515	47.379905	2020-01-25 21:51:19	20200125_215201.geojson
555	99.0		bird_1228a126-e793-404d-9feb-dbd3b4956949			bird			8.52755166666667	47.379825	2020-01-25 21:51:19	20200125_215201.geojson
556	100.0		bird_ea1efaae-e6f1-4689-9e90-a76f3409461a			bird			8.52792166666667	47.38036	2020-01-25 21:51:19	20200125_215201.geojson
557	99.0		bird_5da24033-e230-4e7b-8a95-5f8f7f9fbfde			bird			8.52822666666667	47.3803366666667	2020-01-25 21:51:19	20200125_215201.geojson
558	96.0		bird_4dc125c5-9403-4d6a-a5ea-6d30034e7b1b			bird			8.528275	47.3803016666667	2020-01-25 21:51:19	20200125_215201.geojson
559	78.0		bird_36db5bc8-0eca-4ace-8d75-38bb628eadfc			bird			8.528245	47.38012	2020-01-25 21:51:19	20200125_215201.geojson
560	100.0		bird_305a9822-225d-4ac6-a312-b05abc0044f2			bird			8.52825	47.3800133333333	2020-01-25 21:51:19	20200125_215201.geojson
561	63.0		bird_b56a59f9-2e20-4176-b63e-f1774931662e			bird			8.531505	47.3798833333333	2020-01-25 21:51:19	20200125_215201.geojson
562	100.0		bird_3eb5b59b-c4f4-41b4-9359-f6e59afee2d4			bird			8.53089833333333	47.3791766666667	2020-01-25 21:51:19	20200125_215201.geojson
563	92.0		bird_2f3c3131-9664-478b-87ab-1ff3ae875f8d			bird			8.52875166666667	47.3799933333333	2020-01-25 21:51:19	20200125_215201.geojson
564	69.0		bird_aa0bf15a-a007-4c01-9f87-5249a1e707e2			bird			8.52898833333333	47.37976	2020-01-25 21:51:19	20200125_215201.geojson
565	64.0		flash_35058			flash	16.0		8.59165	47.406353	2020-01-25 21:51:19	20200125_215201.geojson
566	74.0		flash_34509			flash	19.0		8.591915	47.405383	2020-01-25 21:51:19	20200125_215201.geojson
567	93.0		flash_37767			flash	23.0		8.592262	47.404823	2020-01-25 21:51:19	20200125_215201.geojson
568	96.0		flash_34482			flash	24.0		8.592207	47.40481	2020-01-25 21:51:19	20200125_215201.geojson
569	87.0		flash_38188			flash	22.0		8.592657	47.400917	2020-01-25 21:51:19	20200125_215201.geojson
570	73.0		flash_35615			flash	18.0		8.592648	47.400895	2020-01-25 21:51:19	20200125_215201.geojson
571	53.0		flash_34956			flash	13.0		8.591722	47.403013	2020-01-25 21:51:19	20200125_215201.geojson
572	77.0		flash_34850			flash	19.0		8.586493	47.4054	2020-01-25 21:51:19	20200125_215201.geojson
573	69.0		flash_38153			flash	17.0		8.589682	47.40188	2020-01-25 21:51:19	20200125_215201.geojson
574	52.0		flash_38141			flash	13.0		8.584152	47.40139	2020-01-25 21:51:19	20200125_215201.geojson
575	58.0		flash_35358			flash	15.0		8.580268	47.408557	2020-01-25 21:51:19	20200125_215201.geojson
576	60.0		flash_34397			flash	15.0		8.554342	47.427685	2020-01-25 21:51:19	20200125_215201.geojson
577	51.0		flash_38005			flash	13.0		8.566843	47.402847	2020-01-25 21:51:19	20200125_215201.geojson
578	97.0		flash_35365			flash	24.0		8.558758	47.403033	2020-01-25 21:51:19	20200125_215201.geojson
579	71.0		flash_37876			flash	18.0		8.577947	47.408083	2020-01-25 21:51:19	20200125_215201.geojson
580	92.0		flash_38124			flash	23.0		8.550977	47.407047	2020-01-25 21:51:19	20200125_215201.geojson
581	99.0		flash_34648			flash	25.0		8.560055	47.40415	2020-01-25 21:51:19	20200125_215201.geojson
582	80.0		flash_35684			flash	20.0		8.56487	47.426735	2020-01-25 21:51:19	20200125_215201.geojson
583	74.0		flash_34516			flash	19.0		8.556673	47.405745	2020-01-25 21:51:19	20200125_215201.geojson
584	92.0		flash_38123			flash	23.0		8.554583	47.407498	2020-01-25 21:51:19	20200125_215201.geojson
585	76.0		flash_35348			flash	19.0		8.555027	47.42375	2020-01-25 21:51:19	20200125_215201.geojson
586	89.0		flash_34333			flash	22.0		8.571968	47.41082	2020-01-25 21:51:19	20200125_215201.geojson
587	99.0		flash_34713			flash	25.0		8.559815	47.421395	2020-01-25 21:51:19	20200125_215201.geojson
588	60.0		flash_38057			flash	17.0		8.567477	47.411233	2020-01-25 21:51:19	20200125_215201.geojson
589	90.0		flash_37770			flash	23.0		8.56334	47.411147	2020-01-25 21:51:19	20200125_215201.geojson
590	86.0		flash_36429			flash	22.0		8.564238	47.412108	2020-01-25 21:51:19	20200125_215201.geojson
591	76.0		flash_35408			flash	19.0		8.570918	47.335923	2020-01-25 21:51:19	20200125_215201.geojson
592	80.0		flash_34552			flash	20.0		8.52606	47.336282	2020-01-25 21:51:19	20200125_215201.geojson
593	53.0		flash_36398			flash	13.0		8.535967	47.330432	2020-01-25 21:51:19	20200125_215201.geojson
594	59.0		flash_34341			flash	15.0		8.532707	47.338562	2020-01-25 21:51:19	20200125_215201.geojson
595	54.0		flash_38088			flash	14.0		8.529935	47.334227	2020-01-25 21:51:19	20200125_215201.geojson
596	60.0		flash_35720			flash	15.0		8.539547	47.336562	2020-01-25 21:51:19	20200125_215201.geojson
597	72.0		flash_37699			flash	18.0		8.539132	47.334515	2020-01-25 21:51:19	20200125_215201.geojson
598	60.0		flash_38121			flash	15.0		8.533762	47.334532	2020-01-25 21:51:19	20200125_215201.geojson
599	60.0		flash_37854			flash	16.0		8.528428	47.375298	2020-01-25 21:51:19	20200125_215201.geojson
600	97.0		flash_35714			flash	24.0		8.529095	47.368705	2020-01-25 21:51:19	20200125_215201.geojson
601	60.0		flash_37694			flash	17.0		8.527712	47.371323	2020-01-25 21:51:19	20200125_215201.geojson
602	80.0		flash_36410			flash	20.0		8.529778	47.376313	2020-01-25 21:51:19	20200125_215201.geojson
603	88.0		flash_35153			flash	22.0		8.528167	47.371168	2020-01-25 21:51:19	20200125_215201.geojson
604	68.0		flash_35994			flash	17.0		8.536773	47.36611	2020-01-25 21:51:19	20200125_215201.geojson
605	74.0		flash_34748			flash	19.0		8.528897	47.370628	2020-01-25 21:51:19	20200125_215201.geojson
606	80.0		flash_37850			flash	22.0		8.545628	47.37121	2020-01-25 21:51:19	20200125_215201.geojson
607	59.0		flash_37873			flash	15.0		8.544943	47.372258	2020-01-25 21:51:19	20200125_215201.geojson
608	74.0		flash_34502			flash	19.0		8.537437	47.367258	2020-01-25 21:51:19	20200125_215201.geojson
609	60.0		flash_37717			flash	15.0		8.544517	47.373202	2020-01-25 21:51:19	20200125_215201.geojson
610	74.0		flash_34830			flash	19.0		8.543773	47.374242	2020-01-25 21:51:19	20200125_215201.geojson
611	77.0		flash_35221			flash	19.0		8.544025	47.371353	2020-01-25 21:51:19	20200125_215201.geojson
612	80.0		flash_34391			flash	20.0		8.540647	47.376357	2020-01-25 21:51:19	20200125_215201.geojson
613	95.0		flash_37680			flash	24.0		8.541977	47.369245	2020-01-25 21:51:19	20200125_215201.geojson
614	80.0		flash_37965			flash	20.0		8.539513	47.376392	2020-01-25 21:51:19	20200125_215201.geojson
615	97.0		flash_37818			flash	24.0		8.542762	47.374457	2020-01-25 21:51:19	20200125_215201.geojson
616	99.0		flash_37800			flash	25.0		8.536692	47.376613	2020-01-25 21:51:19	20200125_215201.geojson
617	99.0		flash_38033			flash	25.0		8.533438	47.369183	2020-01-25 21:51:19	20200125_215201.geojson
618	57.0		flash_34860			flash	14.0		8.533018	47.369792	2020-01-25 21:51:19	20200125_215201.geojson
619	91.0		flash_38029			flash	23.0		8.539795	47.375758	2020-01-25 21:51:19	20200125_215201.geojson
620	84.0		flash_34449			flash	21.0		8.540015	47.375568	2020-01-25 21:51:19	20200125_215201.geojson
621	55.0		flash_38110			flash	14.0		8.534015	47.369583	2020-01-25 21:51:19	20200125_215201.geojson
622	96.0		flash_35091			flash	24.0		8.539058	47.375573	2020-01-25 21:51:19	20200125_215201.geojson
623	66.0		flash_38078			flash	17.0		8.535842	47.369105	2020-01-25 21:51:19	20200125_215201.geojson
624	76.0		flash_38046			flash	19.0		8.53418	47.374882	2020-01-25 21:51:19	20200125_215201.geojson
625	74.0		flash_34500			flash	19.0		8.54179	47.372773	2020-01-25 21:51:19	20200125_215201.geojson
626	60.0		flash_34885			flash	15.0		8.534057	47.374532	2020-01-25 21:51:19	20200125_215201.geojson
627	57.0		flash_35464			flash	14.0		8.532987	47.37338	2020-01-25 21:51:19	20200125_215201.geojson
628	91.0		flash_35220			flash	23.0		8.533133	47.37324	2020-01-25 21:51:19	20200125_215201.geojson
629	59.0		flash_35566			flash	15.0		8.536205	47.373073	2020-01-25 21:51:19	20200125_215201.geojson
630	51.0		flash_38184			flash	13.0		8.5368	47.372857	2020-01-25 21:51:19	20200125_215201.geojson
631	90.0		flash_34687			flash	23.0		8.525828	47.37031	2020-01-25 21:51:19	20200125_215201.geojson
632	51.0		flash_37855			flash	13.0		8.522013	47.374273	2020-01-25 21:51:19	20200125_215201.geojson
633	58.0		flash_34634			flash	15.0		8.510478	47.356027	2020-01-25 21:51:19	20200125_215201.geojson
634	91.0		flash_34905			flash	23.0		8.514138	47.37647	2020-01-25 21:51:19	20200125_215201.geojson
635	68.0		flash_35748			flash	17.0		8.515173	47.375865	2020-01-25 21:51:19	20200125_215201.geojson
636	59.0		flash_36503			flash	15.0		8.524785	47.366837	2020-01-25 21:51:19	20200125_215201.geojson
637	51.0		flash_34472			flash	13.0		8.518883	47.3722	2020-01-25 21:51:19	20200125_215201.geojson
638	60.0		flash_35300			flash	15.0		8.500573	47.363803	2020-01-25 21:51:19	20200125_215201.geojson
639	52.0		flash_34514			flash	13.0		8.503598	47.362057	2020-01-25 21:51:19	20200125_215201.geojson
640	69.0		flash_38161			flash	17.0		8.51991	47.366018	2020-01-25 21:51:19	20200125_215201.geojson
641	69.0		flash_37952			flash	17.0		8.502052	47.367433	2020-01-25 21:51:19	20200125_215201.geojson
642	66.0		flash_34796			flash	17.0		8.518328	47.368883	2020-01-25 21:51:19	20200125_215201.geojson
643	53.0		flash_38040			flash	13.0		8.512677	47.370565	2020-01-25 21:51:19	20200125_215201.geojson
644	75.0		flash_34806			flash	19.0		8.511338	47.370153	2020-01-25 21:51:19	20200125_215201.geojson
645	76.0		flash_37713			flash	19.0		8.508062	47.36333	2020-01-25 21:51:19	20200125_215201.geojson
646	60.0		flash_35161			flash	15.0		8.514167	47.36382	2020-01-25 21:51:19	20200125_215201.geojson
647	58.0		flash_36021			flash	15.0		8.51227	47.368755	2020-01-25 21:51:19	20200125_215201.geojson
648	50.0		flash_35533			flash	13.0		8.514092	47.365702	2020-01-25 21:51:19	20200125_215201.geojson
649	74.0		flash_38028			flash	19.0		8.512678	47.365433	2020-01-25 21:51:19	20200125_215201.geojson
650	51.0		flash_34620			flash	13.0		8.510907	47.367382	2020-01-25 21:51:19	20200125_215201.geojson
651	77.0		flash_37703			flash	19.0		8.511027	47.357012	2020-01-25 21:51:19	20200125_215201.geojson
652	98.0		flash_34622			flash	25.0		8.526947	47.366267	2020-01-25 21:51:19	20200125_215201.geojson
653	94.0		flash_34993			flash	24.0		8.525338	47.36584	2020-01-25 21:51:19	20200125_215201.geojson
654	50.0		flash_35374			flash	13.0		8.512387	47.35715	2020-01-25 21:51:19	20200125_215201.geojson
655	99.0		flash_35740			flash	25.0		8.525427	47.365233	2020-01-25 21:51:19	20200125_215201.geojson
656	100.0		flash_37931			flash	25.0		8.525457	47.365127	2020-01-25 21:51:19	20200125_215201.geojson
657	90.0		flash_34274			flash	23.0		8.525077	47.365028	2020-01-25 21:51:19	20200125_215201.geojson
658	93.0		flash_37930			flash	23.0		8.525808	47.36511	2020-01-25 21:51:19	20200125_215201.geojson
659	95.0		flash_35483			flash	24.0		8.525078	47.364998	2020-01-25 21:51:19	20200125_215201.geojson
660	97.0		flash_38162			flash	24.0		8.525048	47.36498	2020-01-25 21:51:19	20200125_215201.geojson
661	97.0		flash_35263			flash	24.0		8.525865	47.365098	2020-01-25 21:51:19	20200125_215201.geojson
662	96.0		flash_34781			flash	24.0		8.525048	47.364973	2020-01-25 21:51:19	20200125_215201.geojson
663	99.0		flash_37793			flash	25.0		8.525065	47.364973	2020-01-25 21:51:19	20200125_215201.geojson
664	98.0		flash_36419			flash	25.0		8.525832	47.365073	2020-01-25 21:51:19	20200125_215201.geojson
665	94.0		flash_34249			flash	24.0		8.525943	47.365068	2020-01-25 21:51:19	20200125_215201.geojson
666	99.0		flash_36002			flash	25.0		8.525648	47.365023	2020-01-25 21:51:19	20200125_215201.geojson
667	91.0		flash_34755			flash	23.0		8.524513	47.364785	2020-01-25 21:51:19	20200125_215201.geojson
668	92.0		flash_37897			flash	23.0		8.525842	47.364988	2020-01-25 21:51:19	20200125_215201.geojson
669	89.0		flash_34667			flash	22.0		8.524535	47.364753	2020-01-25 21:51:19	20200125_215201.geojson
670	80.0		flash_37987			flash	23.0		8.53237	47.364968	2020-01-25 21:51:19	20200125_215201.geojson
671	53.0		flash_34668			flash	13.0		8.525785	47.364928	2020-01-25 21:51:19	20200125_215201.geojson
672	68.0		flash_36019			flash	17.0		8.535453	47.343323	2020-01-25 21:51:19	20200125_215201.geojson
673	93.0		flash_34316			flash	23.0		8.525928	47.364825	2020-01-25 21:51:19	20200125_215201.geojson
674	96.0		flash_37929			flash	24.0		8.526927	47.364338	2020-01-25 21:51:19	20200125_215201.geojson
675	96.0		flash_36386			flash	24.0		8.53166	47.364032	2020-01-25 21:51:19	20200125_215201.geojson
676	95.0		flash_37740			flash	24.0		8.534178	47.363557	2020-01-25 21:51:19	20200125_215201.geojson
677	96.0		flash_34290			flash	24.0		8.526778	47.363603	2020-01-25 21:51:19	20200125_215201.geojson
678	57.0		flash_38185			flash	14.0		8.525647	47.36271	2020-01-25 21:51:19	20200125_215201.geojson
679	55.0		flash_35669			flash	14.0		8.518323	47.358368	2020-01-25 21:51:19	20200125_215201.geojson
680	66.0		flash_36379			flash	17.0		8.526552	47.362125	2020-01-25 21:51:19	20200125_215201.geojson
681	67.0		flash_34750			flash	17.0		8.533967	47.345992	2020-01-25 21:51:19	20200125_215201.geojson
682	56.0		flash_35663			flash	14.0		8.527825	47.346078	2020-01-25 21:51:19	20200125_215201.geojson
683	55.0		flash_34367			flash	14.0		8.532945	47.360722	2020-01-25 21:51:19	20200125_215201.geojson
684	60.0		flash_36394			flash	15.0		8.520965	47.357477	2020-01-25 21:51:19	20200125_215201.geojson
685	56.0		flash_36414			flash	14.0		8.53314	47.3479	2020-01-25 21:51:19	20200125_215201.geojson
686	85.0		flash_34241			flash	21.0		8.523623	47.358292	2020-01-25 21:51:19	20200125_215201.geojson
687	80.0		flash_38085			flash	20.0		8.533973	47.349313	2020-01-25 21:51:19	20200125_215201.geojson
688	75.0		flash_37773			flash	19.0		8.529473	47.349582	2020-01-25 21:51:19	20200125_215201.geojson
689	88.0		flash_37795			flash	22.0		8.526907	47.357367	2020-01-25 21:51:19	20200125_215201.geojson
690	80.0		flash_34679			flash	20.0		8.532173	47.351273	2020-01-25 21:51:19	20200125_215201.geojson
691	70.0		flash_34447			flash	18.0		8.526027	47.351715	2020-01-25 21:51:19	20200125_215201.geojson
692	80.0		flash_34289			flash	21.0		8.52534	47.35239	2020-01-25 21:51:19	20200125_215201.geojson
693	71.0		flash_35683			flash	18.0		8.525468	47.352615	2020-01-25 21:51:19	20200125_215201.geojson
694	94.0		flash_38154			flash	24.0		8.530587	47.351827	2020-01-25 21:51:19	20200125_215201.geojson
695	79.0		flash_34318			flash	20.0		8.526858	47.355083	2020-01-25 21:51:19	20200125_215201.geojson
696	92.0		flash_36506			flash	23.0		8.530332	47.352067	2020-01-25 21:51:19	20200125_215201.geojson
697	60.0		flash_37778			flash	16.0		8.530013	47.35524	2020-01-25 21:51:19	20200125_215201.geojson
698	86.0		flash_38171			flash	22.0		8.530995	47.354622	2020-01-25 21:51:19	20200125_215201.geojson
699	69.0		flash_34610			flash	17.0		8.529435	47.354333	2020-01-25 21:51:19	20200125_215201.geojson
700	73.0		flash_34566			flash	18.0		8.52037	47.394295	2020-01-25 21:51:19	20200125_215201.geojson
701	80.0		flash_40412			flash	20.0		8.535558	47.400857	2020-01-25 21:51:19	20200125_215201.geojson
702	53.0		flash_34957			flash	13.0		8.513573	47.394678	2020-01-25 21:51:19	20200125_215201.geojson
703	60.0		flash_37869			flash	15.0		8.518417	47.395478	2020-01-25 21:51:19	20200125_215201.geojson
704	78.0		flash_35629			flash	20.0		8.516222	47.39528	2020-01-25 21:51:19	20200125_215201.geojson
705	60.0		flash_35518			flash	15.0		8.51611	47.3953	2020-01-25 21:51:19	20200125_215201.geojson
706	93.0		flash_37962			flash	23.0		8.538238	47.42705	2020-01-25 21:51:19	20200125_215201.geojson
707	59.0		flash_37908			flash	15.0		8.520542	47.396453	2020-01-25 21:51:19	20200125_215201.geojson
708	87.0		flash_34512			flash	22.0		8.532917	47.401375	2020-01-25 21:51:19	20200125_215201.geojson
709	56.0		flash_38058			flash	14.0		8.518675	47.396515	2020-01-25 21:51:19	20200125_215201.geojson
710	76.0		flash_37918			flash	19.0		8.50864	47.39644	2020-01-25 21:51:19	20200125_215201.geojson
711	60.0		flash_34855			flash	15.0		8.512028	47.396477	2020-01-25 21:51:19	20200125_215201.geojson
712	52.0		flash_34554			flash	13.0		8.534802	47.404135	2020-01-25 21:51:19	20200125_215201.geojson
713	77.0		flash_34384			flash	20.0		8.535257	47.424057	2020-01-25 21:51:19	20200125_215201.geojson
714	52.0		flash_34304			flash	13.0		8.529872	47.404415	2020-01-25 21:51:19	20200125_215201.geojson
715	53.0		flash_34900			flash	13.0		8.532595	47.40694	2020-01-25 21:51:19	20200125_215201.geojson
716	80.0		flash_34869			flash	22.0		8.528587	47.410752	2020-01-25 21:51:19	20200125_215201.geojson
717	91.0		flash_38013			flash	23.0		8.530043	47.416393	2020-01-25 21:51:19	20200125_215201.geojson
718	91.0		flash_38026			flash	23.0		8.528587	47.411948	2020-01-25 21:51:19	20200125_215201.geojson
719	55.0		flash_37866			flash	14.0		8.526695	47.411728	2020-01-25 21:51:19	20200125_215201.geojson
720	76.0		flash_38047			flash	19.0		8.523	47.410222	2020-01-25 21:51:19	20200125_215201.geojson
721	60.0		flash_34708			flash	18.0		8.514812	47.424037	2020-01-25 21:51:19	20200125_215201.geojson
722	57.0		flash_34612			flash	15.0		8.51334	47.424155	2020-01-25 21:51:19	20200125_215201.geojson
723	65.0		flash_35713			flash	16.0		8.519872	47.413383	2020-01-25 21:51:19	20200125_215201.geojson
724	52.0		flash_35183			flash	13.0		8.519475	47.413855	2020-01-25 21:51:19	20200125_215201.geojson
725	54.0		flash_36007			flash	14.0		8.514917	47.413657	2020-01-25 21:51:19	20200125_215201.geojson
726	66.0		flash_35585			flash	17.0		8.508682	47.417207	2020-01-25 21:51:19	20200125_215201.geojson
727	79.0		flash_34567			flash	20.0		8.534367	47.357927	2020-01-25 21:51:19	20200125_215201.geojson
728	73.0		flash_34389			flash	18.0		8.54064	47.367815	2020-01-25 21:51:19	20200125_215201.geojson
729	79.0		flash_35079			flash	20.0		8.543347	47.369358	2020-01-25 21:51:19	20200125_215201.geojson
730	77.0		flash_34350			flash	19.0		8.541017	47.367638	2020-01-25 21:51:19	20200125_215201.geojson
731	99.0		flash_38089			flash	25.0		8.543933	47.368363	2020-01-25 21:51:19	20200125_215201.geojson
732	98.0		flash_34561			flash	25.0		8.54398	47.368372	2020-01-25 21:51:19	20200125_215201.geojson
733	60.0		flash_34627			flash	16.0		8.544007	47.368365	2020-01-25 21:51:19	20200125_215201.geojson
734	80.0		flash_35710			flash	23.0		8.556507	47.372403	2020-01-25 21:51:19	20200125_215201.geojson
735	56.0		flash_38150			flash	14.0		8.549597	47.3704	2020-01-25 21:51:19	20200125_215201.geojson
736	60.0		flash_34671			flash	18.0		8.561485	47.372577	2020-01-25 21:51:19	20200125_215201.geojson
737	80.0		flash_35696			flash	20.0		8.544945	47.367865	2020-01-25 21:51:19	20200125_215201.geojson
738	51.0		flash_37982			flash	13.0		8.545763	47.36837	2020-01-25 21:51:19	20200125_215201.geojson
739	79.0		flash_35695			flash	20.0		8.545137	47.367775	2020-01-25 21:51:19	20200125_215201.geojson
740	99.0		flash_34330			flash	25.0		8.54646	47.368328	2020-01-25 21:51:19	20200125_215201.geojson
741	100.0		flash_35041			flash	25.0		8.546507	47.368332	2020-01-25 21:51:19	20200125_215201.geojson
742	85.0		flash_35634			flash	21.0		8.545877	47.367552	2020-01-25 21:51:19	20200125_215201.geojson
743	72.0		flash_35142			flash	18.0		8.555695	47.370715	2020-01-25 21:51:19	20200125_215201.geojson
744	98.0		flash_34706			flash	25.0		8.54632	47.367075	2020-01-25 21:51:19	20200125_215201.geojson
745	99.0		flash_34602			flash	25.0		8.546308	47.367063	2020-01-25 21:51:19	20200125_215201.geojson
746	60.0		flash_35234			flash	15.0		8.558278	47.370557	2020-01-25 21:51:19	20200125_215201.geojson
747	60.0		flash_36031			flash	19.0		8.548425	47.367037	2020-01-25 21:51:19	20200125_215201.geojson
748	60.0		flash_35336			flash	17.0		8.568682	47.369278	2020-01-25 21:51:19	20200125_215201.geojson
749	58.0		flash_37939			flash	15.0		8.549135	47.366907	2020-01-25 21:51:19	20200125_215201.geojson
750	52.0		flash_37736			flash	13.0		8.549888	47.366277	2020-01-25 21:51:19	20200125_215201.geojson
751	52.0		flash_34248			flash	13.0		8.546528	47.363855	2020-01-25 21:51:19	20200125_215201.geojson
752	60.0		flash_37904			flash	15.0		8.56769	47.368257	2020-01-25 21:51:19	20200125_215201.geojson
753	53.0		flash_36403			flash	13.0		8.551508	47.36669	2020-01-25 21:51:19	20200125_215201.geojson
754	89.0		flash_34918			flash	22.0		8.547318	47.36301	2020-01-25 21:51:19	20200125_215201.geojson
755	78.0		flash_34846			flash	20.0		8.569902	47.34556	2020-01-25 21:51:19	20200125_215201.geojson
756	51.0		flash_37758			flash	13.0		8.565938	47.367247	2020-01-25 21:51:19	20200125_215201.geojson
757	60.0		flash_37785			flash	16.0		8.555455	47.365385	2020-01-25 21:51:19	20200125_215201.geojson
758	68.0		flash_34336			flash	17.0		8.566858	47.365538	2020-01-25 21:51:19	20200125_215201.geojson
759	80.0		flash_37700			flash	20.0		8.549213	47.361197	2020-01-25 21:51:19	20200125_215201.geojson
760	68.0		flash_34967			flash	17.0		8.560623	47.365838	2020-01-25 21:51:19	20200125_215201.geojson
761	59.0		flash_34793			flash	15.0		8.57321	47.34981	2020-01-25 21:51:19	20200125_215201.geojson
762	51.0		flash_37843			flash	13.0		8.550697	47.361292	2020-01-25 21:51:19	20200125_215201.geojson
763	52.0		flash_38087			flash	13.0		8.551112	47.36082	2020-01-25 21:51:19	20200125_215201.geojson
764	59.0		flash_34315			flash	15.0		8.566437	47.364082	2020-01-25 21:51:19	20200125_215201.geojson
765	53.0		flash_38070			flash	13.0		8.565893	47.3642	2020-01-25 21:51:19	20200125_215201.geojson
766	63.0		flash_37727			flash	16.0		8.551958	47.359368	2020-01-25 21:51:19	20200125_215201.geojson
767	95.0		flash_35699			flash	24.0		8.552603	47.35982	2020-01-25 21:51:19	20200125_215201.geojson
768	66.0		flash_35278			flash	17.0		8.56903	47.350753	2020-01-25 21:51:19	20200125_215201.geojson
769	60.0		flash_40413			flash	15.0		8.567127	47.362082	2020-01-25 21:51:19	20200125_215201.geojson
770	80.0		flash_34531			flash	20.0		8.570953	47.357035	2020-01-25 21:51:19	20200125_215201.geojson
771	80.0		flash_37865			flash	20.0		8.563348	47.361557	2020-01-25 21:51:19	20200125_215201.geojson
772	76.0		flash_34926			flash	19.0		8.558935	47.361223	2020-01-25 21:51:19	20200125_215201.geojson
773	67.0		flash_34966			flash	17.0		8.563467	47.361272	2020-01-25 21:51:19	20200125_215201.geojson
774	60.0		flash_37667			flash	15.0		8.567383	47.3596	2020-01-25 21:51:19	20200125_215201.geojson
775	59.0		flash_34615			flash	15.0		8.561737	47.35372	2020-01-25 21:51:19	20200125_215201.geojson
776	78.0		flash_35017			flash	20.0		8.530677	47.414655	2020-01-25 21:51:19	20200125_215201.geojson
777	54.0		flash_38065			flash	14.0		8.533345	47.410192	2020-01-25 21:51:19	20200125_215201.geojson
778	60.0		flash_34526			flash	15.0		8.555753	47.409728	2020-01-25 21:51:19	20200125_215201.geojson
779	97.0		flash_34765			flash	24.0		8.530812	47.414557	2020-01-25 21:51:19	20200125_215201.geojson
780	80.0		flash_38099			flash	20.0		8.534625	47.409608	2020-01-25 21:51:19	20200125_215201.geojson
781	57.0		flash_37693			flash	14.0		8.551947	47.4084	2020-01-25 21:51:19	20200125_215201.geojson
782	70.0		flash_35650			flash	18.0		8.532037	47.416918	2020-01-25 21:51:19	20200125_215201.geojson
783	51.0		flash_35315			flash	13.0		8.55048	47.42379	2020-01-25 21:51:19	20200125_215201.geojson
784	80.0		flash_35554			flash	20.0		8.550553	47.423762	2020-01-25 21:51:19	20200125_215201.geojson
785	94.0		flash_36402			flash	24.0		8.557323	47.414657	2020-01-25 21:51:19	20200125_215201.geojson
786	98.0		flash_37781			flash	25.0		8.532473	47.414515	2020-01-25 21:51:19	20200125_215201.geojson
787	58.0		flash_34228			flash	15.0		8.532437	47.414855	2020-01-25 21:51:19	20200125_215201.geojson
788	97.0		flash_38017			flash	24.0		8.556723	47.413443	2020-01-25 21:51:19	20200125_215201.geojson
789	100.0		flash_34681			flash	25.0		8.547662	47.407765	2020-01-25 21:51:19	20200125_215201.geojson
790	99.0		flash_35855			flash	25.0		8.547685	47.407873	2020-01-25 21:51:19	20200125_215201.geojson
791	52.0		flash_40379			flash	13.0		8.554405	47.420997	2020-01-25 21:51:19	20200125_215201.geojson
792	93.0		flash_34296			flash	23.0		8.5561	47.413783	2020-01-25 21:51:19	20200125_215201.geojson
793	71.0		flash_37926			flash	18.0		8.556013	47.414725	2020-01-25 21:51:19	20200125_215201.geojson
794	60.0		flash_35610			flash	17.0		8.538715	47.409688	2020-01-25 21:51:19	20200125_215201.geojson
795	94.0		flash_37934			flash	24.0		8.534207	47.417225	2020-01-25 21:51:19	20200125_215201.geojson
796	89.0		flash_34865			flash	22.0		8.552238	47.410873	2020-01-25 21:51:19	20200125_215201.geojson
797	69.0		flash_35738			flash	17.0		8.551032	47.410647	2020-01-25 21:51:19	20200125_215201.geojson
798	78.0		flash_35172			flash	20.0		8.535032	47.416607	2020-01-25 21:51:19	20200125_215201.geojson
799	67.0		flash_38152			flash	17.0		8.54364	47.409375	2020-01-25 21:51:19	20200125_215201.geojson
800	72.0		flash_34307			flash	18.0		8.54245	47.409583	2020-01-25 21:51:19	20200125_215201.geojson
801	99.0		flash_37737			flash	25.0		8.550727	47.410857	2020-01-25 21:51:19	20200125_215201.geojson
802	100.0		flash_34370			flash	25.0		8.55064	47.410832	2020-01-25 21:51:19	20200125_215201.geojson
803	95.0		flash_37715			flash	24.0		8.55066	47.410853	2020-01-25 21:51:19	20200125_215201.geojson
804	59.0		flash_40380			flash	15.0		8.55393	47.41774	2020-01-25 21:51:19	20200125_215201.geojson
805	97.0		flash_37738			flash	24.0		8.550612	47.41084	2020-01-25 21:51:19	20200125_215201.geojson
806	99.0		flash_36399			flash	25.0		8.550543	47.410857	2020-01-25 21:51:19	20200125_215201.geojson
807	99.0		flash_35623			flash	25.0		8.550537	47.410868	2020-01-25 21:51:19	20200125_215201.geojson
808	71.0		flash_34847			flash	18.0		8.541685	47.421905	2020-01-25 21:51:19	20200125_215201.geojson
809	56.0		flash_34839			flash	14.0		8.550128	47.410928	2020-01-25 21:51:19	20200125_215201.geojson
810	91.0		flash_38061			flash	23.0		8.550552	47.411162	2020-01-25 21:51:19	20200125_215201.geojson
811	80.0		flash_35461			flash	20.0		8.53716	47.419062	2020-01-25 21:51:19	20200125_215201.geojson
812	97.0		flash_35069			flash	24.0		8.536727	47.417077	2020-01-25 21:51:19	20200125_215201.geojson
813	51.0		flash_34962			flash	13.0		8.546245	47.421252	2020-01-25 21:51:19	20200125_215201.geojson
814	75.0		flash_34555			flash	19.0		8.542477	47.410895	2020-01-25 21:51:19	20200125_215201.geojson
815	75.0		flash_35698			flash	19.0		8.540448	47.420205	2020-01-25 21:51:19	20200125_215201.geojson
816	76.0		flash_35056			flash	19.0		8.543207	47.411112	2020-01-25 21:51:19	20200125_215201.geojson
817	99.0		flash_38093			flash	25.0		8.540402	47.412525	2020-01-25 21:51:19	20200125_215201.geojson
818	75.0		flash_35145			flash	19.0		8.5496	47.413083	2020-01-25 21:51:19	20200125_215201.geojson
819	96.0		flash_37743			flash	24.0		8.545548	47.412188	2020-01-25 21:51:19	20200125_215201.geojson
820	99.0		flash_40381			flash	25.0		8.546033	47.419275	2020-01-25 21:51:19	20200125_215201.geojson
821	98.0		flash_35703			flash	25.0		8.541645	47.413588	2020-01-25 21:51:19	20200125_215201.geojson
822	56.0		flash_37733			flash	14.0		8.546798	47.418013	2020-01-25 21:51:19	20200125_215201.geojson
823	96.0		flash_34786			flash	24.0		8.541842	47.416963	2020-01-25 21:51:19	20200125_215201.geojson
824	76.0		flash_38128			flash	19.0		8.546473	47.415795	2020-01-25 21:51:19	20200125_215201.geojson
825	97.0		flash_35396			flash	24.0		8.544925	47.416363	2020-01-25 21:51:19	20200125_215201.geojson
826	65.0		flash_37959			flash	16.0		8.526608	47.377612	2020-01-25 21:51:19	20200125_215201.geojson
827	74.0		flash_36384			flash	19.0		8.528365	47.39225	2020-01-25 21:51:19	20200125_215201.geojson
828	76.0		flash_37925			flash	19.0		8.521085	47.390738	2020-01-25 21:51:19	20200125_215201.geojson
829	80.0		flash_36499			flash	20.0		8.530878	47.378825	2020-01-25 21:51:19	20200125_215201.geojson
830	79.0		flash_35393			flash	20.0		8.524573	47.378885	2020-01-25 21:51:19	20200125_215201.geojson
831	73.0		flash_35002			flash	18.0		8.521617	47.389873	2020-01-25 21:51:19	20200125_215201.geojson
832	74.0		flash_34883			flash	19.0		8.521403	47.389683	2020-01-25 21:51:19	20200125_215201.geojson
833	91.0		flash_35373			flash	23.0		8.521935	47.389963	2020-01-25 21:51:19	20200125_215201.geojson
834	62.0		flash_34702			flash	16.0		8.522047	47.390003	2020-01-25 21:51:19	20200125_215201.geojson
835	93.0		flash_35616			flash	23.0		8.52137	47.389597	2020-01-25 21:51:19	20200125_215201.geojson
836	96.0		flash_37911			flash	24.0		8.52544	47.379147	2020-01-25 21:51:19	20200125_215201.geojson
837	57.0		flash_37983			flash	14.0		8.526683	47.379032	2020-01-25 21:51:19	20200125_215201.geojson
838	55.0		flash_37966			flash	14.0		8.523578	47.379675	2020-01-25 21:51:19	20200125_215201.geojson
839	85.0		flash_37835			flash	21.0		8.528035	47.390595	2020-01-25 21:51:19	20200125_215201.geojson
840	72.0		flash_35605			flash	18.0		8.52804	47.39058	2020-01-25 21:51:19	20200125_215201.geojson
841	73.0		flash_36377			flash	18.0		8.52229	47.389412	2020-01-25 21:51:19	20200125_215201.geojson
842	70.0		flash_34616			flash	18.0		8.522948	47.389468	2020-01-25 21:51:19	20200125_215201.geojson
843	94.0		flash_38138			flash	24.0		8.527575	47.380052	2020-01-25 21:51:19	20200125_215201.geojson
844	75.0		flash_34743			flash	19.0		8.520632	47.384997	2020-01-25 21:51:19	20200125_215201.geojson
845	51.0		flash_38012			flash	13.0		8.531935	47.382305	2020-01-25 21:51:19	20200125_215201.geojson
846	94.0		flash_38168			flash	24.0		8.531925	47.382497	2020-01-25 21:51:19	20200125_215201.geojson
847	99.0		flash_34746			flash	25.0		8.521993	47.385785	2020-01-25 21:51:19	20200125_215201.geojson
848	80.0		flash_34331			flash	20.0		8.53171	47.383425	2020-01-25 21:51:19	20200125_215201.geojson
849	60.0		flash_37851			flash	16.0		8.522635	47.385625	2020-01-25 21:51:19	20200125_215201.geojson
850	90.0		flash_35364			flash	23.0		8.524413	47.387368	2020-01-25 21:51:19	20200125_215201.geojson
851	60.0		flash_35593			flash	15.0		8.530872	47.383835	2020-01-25 21:51:19	20200125_215201.geojson
852	53.0		flash_35441			flash	13.0		8.52941	47.387148	2020-01-25 21:51:19	20200125_215201.geojson
853	86.0		flash_34945			flash	22.0		8.526223	47.387273	2020-01-25 21:51:19	20200125_215201.geojson
854	91.0		flash_37923			flash	23.0		8.526302	47.387278	2020-01-25 21:51:19	20200125_215201.geojson
855	68.0		flash_34298			flash	17.0		8.53043	47.384332	2020-01-25 21:51:19	20200125_215201.geojson
856	51.0		flash_34656			flash	13.0		8.52835	47.38533	2020-01-25 21:51:19	20200125_215201.geojson
857	54.0		flash_34816			flash	14.0		8.496892	47.368395	2020-01-25 21:51:19	20200125_215201.geojson
858	60.0		flash_35665			flash	15.0		8.482103	47.397127	2020-01-25 21:51:19	20200125_215201.geojson
859	53.0		flash_35330			flash	13.0		8.490125	47.375973	2020-01-25 21:51:19	20200125_215201.geojson
860	89.0		flash_37972			flash	22.0		8.491223	47.393003	2020-01-25 21:51:19	20200125_215201.geojson
861	80.0		flash_35598			flash	22.0		8.491072	47.392942	2020-01-25 21:51:19	20200125_215201.geojson
862	54.0		flash_37811			flash	14.0		8.490057	47.37807	2020-01-25 21:51:19	20200125_215201.geojson
863	80.0		flash_37764			flash	20.0		8.471275	47.392693	2020-01-25 21:51:19	20200125_215201.geojson
864	80.0		flash_38038			flash	20.0		8.469162	47.390933	2020-01-25 21:51:19	20200125_215201.geojson
865	60.0		flash_34971			flash	16.0		8.488853	47.377817	2020-01-25 21:51:19	20200125_215201.geojson
866	72.0		flash_35701			flash	18.0		8.467998	47.38894	2020-01-25 21:51:19	20200125_215201.geojson
867	60.0		flash_37857			flash	17.0		8.4737	47.393152	2020-01-25 21:51:19	20200125_215201.geojson
868	76.0		flash_36443			flash	19.0		8.469297	47.389447	2020-01-25 21:51:19	20200125_215201.geojson
869	60.0		flash_37900			flash	15.0		8.474688	47.392778	2020-01-25 21:51:19	20200125_215201.geojson
870	100.0		flash_34519			flash	25.0		8.488902	47.391635	2020-01-25 21:51:19	20200125_215201.geojson
871	100.0		flash_34437			flash	25.0		8.488765	47.39165	2020-01-25 21:51:19	20200125_215201.geojson
872	100.0		flash_37748			flash	25.0		8.488868	47.391553	2020-01-25 21:51:19	20200125_215201.geojson
873	100.0		flash_37901			flash	25.0		8.48886	47.391465	2020-01-25 21:51:19	20200125_215201.geojson
874	99.0		flash_34222			flash	25.0		8.488917	47.391337	2020-01-25 21:51:19	20200125_215201.geojson
875	99.0		flash_35018			flash	25.0		8.488673	47.391385	2020-01-25 21:51:19	20200125_215201.geojson
876	100.0		flash_34411			flash	25.0		8.488432	47.391383	2020-01-25 21:51:19	20200125_215201.geojson
877	100.0		flash_35037			flash	25.0		8.488578	47.391115	2020-01-25 21:51:19	20200125_215201.geojson
878	100.0		flash_36415			flash	25.0		8.48777	47.391352	2020-01-25 21:51:19	20200125_215201.geojson
879	60.0		flash_35377			flash	19.0		8.476508	47.392442	2020-01-25 21:51:19	20200125_215201.geojson
880	80.0		flash_37954			flash	20.0		8.4734	47.390278	2020-01-25 21:51:19	20200125_215201.geojson
881	80.0		flash_35590			flash	20.0		8.474893	47.39058	2020-01-25 21:51:19	20200125_215201.geojson
882	51.0		flash_35085			flash	13.0		8.478717	47.391638	2020-01-25 21:51:19	20200125_215201.geojson
883	53.0		flash_36400			flash	13.0		8.483425	47.380343	2020-01-25 21:51:19	20200125_215201.geojson
884	80.0		flash_35093			flash	20.0		8.480738	47.390897	2020-01-25 21:51:19	20200125_215201.geojson
885	73.0		flash_34623			flash	18.0		8.485048	47.388193	2020-01-25 21:51:19	20200125_215201.geojson
886	79.0		flash_34427			flash	20.0		8.48379	47.387463	2020-01-25 21:51:19	20200125_215201.geojson
887	51.0		flash_34252			flash	13.0		8.481928	47.386877	2020-01-25 21:51:19	20200125_215201.geojson
888	94.0		flash_35090			flash	24.0		8.540883	47.376395	2020-01-25 21:51:19	20200125_215201.geojson
889	59.0		flash_34553			flash	15.0		8.543467	47.375823	2020-01-25 21:51:19	20200125_215201.geojson
890	53.0		flash_38174			flash	13.0		8.554498	47.373872	2020-01-25 21:51:19	20200125_215201.geojson
